[{"datasetid": "st_covoiturage_p", "recordid": "184e51d78f32c1d1cca5b13570c26c9c3597e2da", "fields": {"geo_point_2d": [44.7972933, -0.5532474], "gestionnaire": "TRANSPORTS_BM", "mdate": "2021-11-18T15:24:02+01:00", "geom_o": "0", "id_local": "2", "insee": "33039", "condition_acces": "SOUS_CONDITION", "nb_place": 5, "nb_pmr": 0, "geo_shape": {"coordinates": [-0.5532474, 44.7972933], "type": "Point"}, "actif": "True", "nb_irve": 0, "cdate": "2019-11-15T15:03:23+01:00", "gid": 1408, "accessibilite_24_24": "False", "libelle": "Parc-relais Gare de Begles", "implantation": "PARKING_RELAIS", "adresse": "avenue Lenine 33130 Begles", "ident": "33039-C-001"}, "geometry": {"type": "Point", "coordinates": [-0.5532474, 44.7972933]}, "record_timestamp": "2022-12-06T05:30:13.941+01:00"},{"datasetid": "st_covoiturage_p", "recordid": "dc5badec6bdca503b958deaf79e6519e89a24985", "fields": {"geo_point_2d": [44.8783587, -0.5187852], "gestionnaire": "TRANSPORTS_BM", "mdate": "2021-11-18T15:24:02+01:00", "geom_o": "0", "id_local": "15", "insee": "33249", "condition_acces": "SOUS_CONDITION", "nb_place": 5, "nb_pmr": 0, "geo_shape": {"coordinates": [-0.5187852, 44.8783587], "type": "Point"}, "actif": "True", "nb_irve": 0, "cdate": "2019-11-15T15:03:23+01:00", "gid": 1416, "accessibilite_24_24": "False", "libelle": "Parc-relais Laurriers", "implantation": "PARKING_RELAIS", "adresse": "rue Victor Hugo 33310 Lormont", "ident": "33249-C-004"}, "geometry": {"type": "Point", "coordinates": [-0.5187852, 44.8783587]}, "record_timestamp": "2022-12-06T05:30:13.941+01:00"},{"datasetid": "st_covoiturage_p", "recordid": "6b4019ff5dc1f89916151b86bd29344e9eaa7a7e", "fields": {"geo_point_2d": [44.8647637, -0.5245629], "gestionnaire": "TRANSPORTS_BM", "mdate": "2021-11-18T15:24:02+01:00", "geom_o": "0", "id_local": "16", "insee": "33249", "condition_acces": "SOUS_CONDITION", "nb_place": 10, "nb_pmr": 0, "geo_shape": {"coordinates": [-0.5245629, 44.8647637], "type": "Point"}, "actif": "True", "nb_irve": 0, "cdate": "2019-11-15T15:03:23+01:00", "gid": 1417, "accessibilite_24_24": "False", "libelle": "Parc-relais Buttiniere", "implantation": "PARKING_RELAIS", "adresse": "route de Bordeaux 33130 Lormont", "ident": "33249-C-005"}, "geometry": {"type": "Point", "coordinates": [-0.5245629, 44.8647637]}, "record_timestamp": "2022-12-06T05:30:13.941+01:00"},{"datasetid": "st_covoiturage_p", "recordid": "96c648d4c25de7da4c1011f4f6351023d9c6e84e", "fields": {"geo_point_2d": [44.8060586, -0.6007667], "gestionnaire": "TRANSPORTS_BM", "mdate": "2021-12-08T16:01:56+01:00", "geom_o": "0", "id_local": "26", "insee": "33522", "condition_acces": "SOUS_CONDITION", "nb_place": 10, "nb_pmr": 0, "geo_shape": {"coordinates": [-0.6007667, 44.8060586], "type": "Point"}, "actif": "True", "nb_irve": 0, "cdate": "2019-11-15T15:03:23+01:00", "gid": 1423, "accessibilite_24_24": "False", "libelle": "Parc-relais Arts et Metiers", "implantation": "PARKING_RELAIS", "adresse": "avenue de l'Universite 33400 Talence", "ident": "33522-C-001"}, "geometry": {"type": "Point", "coordinates": [-0.6007667, 44.8060586]}, "record_timestamp": "2022-12-06T05:30:13.941+01:00"},{"datasetid": "st_covoiturage_p", "recordid": "cf06c9b61b9ab7459909d0f56e041a0d35985f18", "fields": {"geo_point_2d": [44.8382085, -0.5575964], "gestionnaire": "TRANSPORTS_BM", "mdate": "2021-11-18T15:24:02+01:00", "geom_o": "0", "id_local": "6", "insee": "33063", "condition_acces": "SOUS_CONDITION", "nb_place": 5, "nb_pmr": 0, "geo_shape": {"coordinates": [-0.5575964, 44.8382085], "type": "Point"}, "actif": "True", "nb_irve": 0, "cdate": "2019-11-15T15:03:23+01:00", "gid": 1427, "accessibilite_24_24": "False", "libelle": "Parc-relais Stalingrad", "implantation": "PARKING_RELAIS", "adresse": "rue Letellier 33000 Bordeaux", "ident": "33063-C-004"}, "geometry": {"type": "Point", "coordinates": [-0.5575964, 44.8382085]}, "record_timestamp": "2022-12-06T05:30:13.941+01:00"},{"datasetid": "st_covoiturage_p", "recordid": "6aca20aa0be57c7eb708a8b0af6ee1e0fc1cc001", "fields": {"geo_point_2d": [44.8734473, -0.5755715], "gestionnaire": "TRANSPORTS_BM", "mdate": "2021-11-18T15:24:02+01:00", "geom_o": "0", "id_local": "8", "insee": "33063", "condition_acces": "SOUS_CONDITION", "nb_place": 5, "nb_pmr": 0, "geo_shape": {"coordinates": [-0.5755715, 44.8734473], "type": "Point"}, "actif": "True", "nb_irve": 0, "cdate": "2019-11-15T15:03:23+01:00", "gid": 1429, "accessibilite_24_24": "False", "libelle": "Parc-relais Les Aubiers", "implantation": "PARKING_RELAIS", "adresse": "rue du Jonc 33000 Bordeaux", "ident": "33063-C-006"}, "geometry": {"type": "Point", "coordinates": [-0.5755715, 44.8734473]}, "record_timestamp": "2022-12-06T05:30:13.941+01:00"},{"datasetid": "st_covoiturage_p", "recordid": "c323fca6e57b1413ba26e0170e090a99a076c9fa", "fields": {"geo_point_2d": [44.9179397, -0.6348042], "gestionnaire": "BORDEAUX_METROPOLE", "mdate": "2021-11-18T15:24:02+01:00", "geom_o": "0", "id_local": "34", "insee": "33056", "condition_acces": "LIBRE", "nb_place": 4, "nb_pmr": 0, "geo_shape": {"coordinates": [-0.6348042, 44.9179397], "type": "Point"}, "actif": "True", "nb_irve": 0, "cdate": "2020-12-15T10:21:28+01:00", "gid": 1433, "accessibilite_24_24": "True", "libelle": "Blanquefort Breillan - De Gaulle", "implantation": "VOIRIE_PUBLIQUE", "adresse": "avenue de Breillan-angle avenue De Gaulle 33290 Blanquefort", "ident": "33056-C-002"}, "geometry": {"type": "Point", "coordinates": [-0.6348042, 44.9179397]}, "record_timestamp": "2022-12-06T05:30:13.941+01:00"},{"datasetid": "st_covoiturage_p", "recordid": "2d2744aeb3ed5feaee3010df239fddeababc5385", "fields": {"geo_point_2d": [44.9302149, -0.6372672], "gestionnaire": "BORDEAUX_METROPOLE", "mdate": "2021-11-18T15:24:02+01:00", "geom_o": "0", "id_local": "35", "insee": "33056", "condition_acces": "LIBRE", "nb_place": 4, "nb_pmr": 0, "geo_shape": {"coordinates": [-0.6372672, 44.9302149], "type": "Point"}, "actif": "True", "nb_irve": 0, "cdate": "2020-12-15T11:01:04+01:00", "gid": 1434, "accessibilite_24_24": "True", "libelle": "Blanquefort Eglise de Caychac", "implantation": "VOIRIE_PUBLIQUE", "adresse": "rue Edmond Blanc-angle rue Mathurin Olivier 33290 Blanquefort", "ident": "33056-C-003"}, "geometry": {"type": "Point", "coordinates": [-0.6372672, 44.9302149]}, "record_timestamp": "2022-12-06T05:30:13.941+01:00"},{"datasetid": "st_covoiturage_p", "recordid": "09a8a4d76258a46c4165882a889c51573a6fd163", "fields": {"geo_point_2d": [44.8140009, -0.712618], "gestionnaire": "BORDEAUX_METROPOLE", "mdate": "2021-11-18T15:24:02+01:00", "geom_o": "0", "id_local": "53", "insee": "33281", "condition_acces": "LIBRE", "nb_place": 50, "nb_pmr": 0, "geo_shape": {"coordinates": [-0.712618, 44.8140009], "type": "Point"}, "actif": "True", "nb_irve": 0, "cdate": "2017-12-05T00:00:00+01:00", "gid": 1437, "accessibilite_24_24": "True", "libelle": "Beutre / BA106", "implantation": "VOIRIE_PUBLIQUE", "adresse": "341 avenue de l'Argonne 33700 Merignac", "ident": "33281-C-009"}, "geometry": {"type": "Point", "coordinates": [-0.712618, 44.8140009]}, "record_timestamp": "2022-12-06T05:30:13.941+01:00"},{"datasetid": "st_covoiturage_p", "recordid": "13fee5ba3e378ff280036214392a99d71f9ab0f3", "fields": {"geo_point_2d": [44.8691516, -0.6364466], "gestionnaire": "BORDEAUX_METROPOLE", "mdate": "2021-11-18T15:24:02+01:00", "geom_o": "0", "id_local": "42", "insee": "33162", "condition_acces": "LIBRE", "nb_place": 5, "nb_pmr": 0, "geo_shape": {"coordinates": [-0.6364466, 44.8691516], "type": "Point"}, "actif": "True", "nb_irve": 0, "cdate": "2015-01-01T00:00:00+01:00", "gid": 1372, "accessibilite_24_24": "True", "libelle": "Parking rue des Jasmins", "implantation": "VOIRIE_PUBLIQUE", "adresse": "2 rue des jasmins 33320 Eysines", "ident": "33162-C-007"}, "geometry": {"type": "Point", "coordinates": [-0.6364466, 44.8691516]}, "record_timestamp": "2022-12-06T05:30:13.941+01:00"},{"datasetid": "st_covoiturage_p", "recordid": "25a4ce3362d0082f2fb83f02aa3025215132fdd8", "fields": {"geo_point_2d": [44.8303192, -0.6794236], "gestionnaire": "PRIVE", "mdate": "2021-11-18T15:24:02+01:00", "geom_o": "0", "id_local": "50", "insee": "33281", "condition_acces": "LIBRE", "nb_place": 5, "nb_pmr": 0, "geo_shape": {"coordinates": [-0.6794236, 44.8303192], "type": "Point"}, "actif": "True", "nb_irve": 0, "cdate": "2015-01-01T00:00:00+01:00", "gid": 1374, "accessibilite_24_24": "True", "libelle": "Decathlon Oxylane", "implantation": "VOIRIE_PRIVEE", "adresse": "2 rue Hipparque 33700 Merignac", "ident": "33281-C-006"}, "geometry": {"type": "Point", "coordinates": [-0.6794236, 44.8303192]}, "record_timestamp": "2022-12-06T05:30:13.941+01:00"},{"datasetid": "st_covoiturage_p", "recordid": "f066a90c2436e0ccf6fc652e7bb3c05c34cf79ed", "fields": {"geo_point_2d": [44.8157472, -0.67998], "gestionnaire": "BORDEAUX_METROPOLE", "mdate": "2021-11-18T15:24:02+01:00", "geom_o": "0", "id_local": "51", "insee": "33281", "condition_acces": "LIBRE", "nb_place": 38, "nb_pmr": 0, "geo_shape": {"coordinates": [-0.67998, 44.8157472], "type": "Point"}, "actif": "True", "nb_irve": 0, "cdate": "2017-01-01T00:00:00+01:00", "gid": 1378, "accessibilite_24_24": "True", "libelle": "Aire du crematorium", "implantation": "VOIRIE_PUBLIQUE", "adresse": "Allee du Souvenir 33700 Merignac", "ident": "33281-C-007"}, "geometry": {"type": "Point", "coordinates": [-0.67998, 44.8157472]}, "record_timestamp": "2022-12-06T05:30:13.941+01:00"},{"datasetid": "st_covoiturage_p", "recordid": "56f6c6497af7d28d4065b4213772dfa12e3f6a31", "fields": {"geo_point_2d": [44.9038637, -0.746765], "gestionnaire": "PRIVE", "mdate": "2021-11-18T15:24:02+01:00", "geom_o": "0", "id_local": "63", "insee": "33449", "condition_acces": "LIBRE", "nb_place": 5, "nb_pmr": 0, "geo_shape": {"coordinates": [-0.746765, 44.9038637], "type": "Point"}, "actif": "True", "nb_irve": 0, "cdate": "2014-01-01T00:00:00+01:00", "gid": 1380, "accessibilite_24_24": "True", "libelle": "Aire Intermarche Picot", "implantation": "VOIRIE_PRIVEE", "adresse": "avenue Leon Blum 33160 Saint Medard en Jalles", "ident": "33434-C-004"}, "geometry": {"type": "Point", "coordinates": [-0.746765, 44.9038637]}, "record_timestamp": "2022-12-06T05:30:13.941+01:00"},{"datasetid": "st_covoiturage_p", "recordid": "4828fc29c69faa66d847d57066d4b040f10a3f0e", "fields": {"geo_point_2d": [44.944626, -0.6189726], "gestionnaire": "BORDEAUX_METROPOLE", "mdate": "2021-11-18T15:24:02+01:00", "geom_o": "0", "id_local": "57", "insee": "33312", "condition_acces": "LIBRE", "nb_place": 10, "nb_pmr": 0, "geo_shape": {"coordinates": [-0.6189726, 44.944626], "type": "Point"}, "actif": "True", "nb_irve": 0, "cdate": "2013-01-01T00:00:00+01:00", "gid": 1382, "accessibilite_24_24": "True", "libelle": "Parking Intermodal", "implantation": "VOIRIE_PUBLIQUE", "adresse": "93 rue de la Gare 33290 Parempuyre", "ident": "33312-C-002"}, "geometry": {"type": "Point", "coordinates": [-0.6189726, 44.944626]}, "record_timestamp": "2022-12-06T05:30:13.941+01:00"},{"datasetid": "st_covoiturage_p", "recordid": "5d7cb9988ac3beb306e89ee2bbfa3c351fadd8ce", "fields": {"geo_point_2d": [44.8855456, -0.5975269], "gestionnaire": "BORDEAUX_METROPOLE", "mdate": "2021-11-18T15:24:02+01:00", "geom_o": "0", "id_local": "38", "insee": "33075", "condition_acces": "LIBRE", "nb_place": 5, "nb_pmr": 0, "geo_shape": {"coordinates": [-0.5975269, 44.8855456], "type": "Point"}, "actif": "True", "nb_irve": 0, "cdate": "2015-01-01T00:00:00+01:00", "gid": 1384, "accessibilite_24_24": "True", "libelle": "Chemin de Bacchus", "implantation": "VOIRIE_PUBLIQUE", "adresse": "5-7 chemin de Bacchus 33520 Bruges", "ident": "33075-C-001"}, "geometry": {"type": "Point", "coordinates": [-0.5975269, 44.8855456]}, "record_timestamp": "2022-12-06T05:30:13.941+01:00"},{"datasetid": "st_covoiturage_p", "recordid": "97ec09defae50943305d1cc826b4e83fc7e4026b", "fields": {"geo_point_2d": [44.7859304, -0.6382826], "gestionnaire": "PRIVE", "mdate": "2021-11-18T15:24:02+01:00", "geom_o": "0", "id_local": "58", "insee": "33318", "condition_acces": "LIBRE", "nb_place": 5, "nb_pmr": 0, "geo_shape": {"coordinates": [-0.6382826, 44.7859304], "type": "Point"}, "actif": "True", "nb_irve": 0, "cdate": "2015-01-01T00:00:00+01:00", "gid": 1388, "accessibilite_24_24": "True", "libelle": "Aire Geant Casino Pessac Bersol", "implantation": "VOIRIE_PRIVEE", "adresse": "5 avenue de la Tuileranne 33600 Pessac", "ident": "33318-C-002"}, "geometry": {"type": "Point", "coordinates": [-0.6382826, 44.7859304]}, "record_timestamp": "2022-12-06T05:30:13.941+01:00"},{"datasetid": "st_covoiturage_p", "recordid": "20622958a9b5b5a644a2a6531b044dac7d2c701e", "fields": {"geo_point_2d": [44.8339393, -0.6861083], "gestionnaire": "BORDEAUX_METROPOLE", "mdate": "2021-11-18T15:24:02+01:00", "geom_o": "0", "id_local": "54", "insee": "33281", "condition_acces": "LIBRE", "nb_place": 5, "nb_pmr": 0, "geo_shape": {"coordinates": [-0.6861083, 44.8339393], "type": "Point"}, "actif": "True", "nb_irve": 0, "cdate": "2015-01-01T00:00:00+01:00", "gid": 1389, "accessibilite_24_24": "True", "libelle": "Parking rue Ariane", "implantation": "VOIRIE_PUBLIQUE", "adresse": "34 rue Ariane 33700 Merignac", "ident": "33281-C-010"}, "geometry": {"type": "Point", "coordinates": [-0.6861083, 44.8339393]}, "record_timestamp": "2022-12-06T05:30:13.941+01:00"},{"datasetid": "st_covoiturage_p", "recordid": "1c2b5fcc20917ccf6e814ace3790ed4c4b6573c6", "fields": {"geo_point_2d": [44.8636276, -0.6579911], "gestionnaire": "BORDEAUX_METROPOLE", "mdate": "2021-11-18T15:24:02+01:00", "geom_o": "0", "id_local": "44", "insee": "33162", "condition_acces": "LIBRE", "nb_place": 2, "nb_pmr": 0, "geo_shape": {"coordinates": [-0.6579911, 44.8636276], "type": "Point"}, "actif": "True", "nb_irve": 0, "cdate": "2015-01-01T00:00:00+01:00", "gid": 1390, "accessibilite_24_24": "True", "libelle": "Parking allee du Limancet", "implantation": "VOIRIE_PUBLIQUE", "adresse": "6 allee du Limancet 33320 Eysines", "ident": "33162-C-011"}, "geometry": {"type": "Point", "coordinates": [-0.6579911, 44.8636276]}, "record_timestamp": "2022-12-06T05:30:13.941+01:00"},{"datasetid": "st_covoiturage_p", "recordid": "9283c682d0270c11152900c185bfb302238039af", "fields": {"geo_point_2d": [44.8927007, -0.717608], "gestionnaire": "BORDEAUX_METROPOLE", "mdate": "2021-11-18T15:24:02+01:00", "geom_o": "0", "id_local": "65", "insee": "33449", "condition_acces": "LIBRE", "nb_place": 4, "nb_pmr": 0, "geo_shape": {"coordinates": [-0.717608, 44.8927007], "type": "Point"}, "actif": "True", "nb_irve": 0, "cdate": "2015-01-01T00:00:00+01:00", "gid": 1391, "accessibilite_24_24": "True", "libelle": "Parking Jean Duperrier", "implantation": "VOIRIE_PUBLIQUE", "adresse": "77 rue Jean Duperrier 33160 Saint Medard en jalles", "ident": "33434-C-005"}, "geometry": {"type": "Point", "coordinates": [-0.717608, 44.8927007]}, "record_timestamp": "2022-12-06T05:30:13.941+01:00"},{"datasetid": "st_covoiturage_p", "recordid": "9c02cef7d419b5209b2648b4d1ac1b71d13bab3e", "fields": {"geo_point_2d": [44.8459272, -0.6549087], "gestionnaire": "BORDEAUX_METROPOLE", "mdate": "2021-11-18T15:24:02+01:00", "geom_o": "0", "id_local": "55", "insee": "33281", "condition_acces": "LIBRE", "nb_place": 5, "nb_pmr": 0, "geo_shape": {"coordinates": [-0.6549087, 44.8459272], "type": "Point"}, "actif": "True", "nb_irve": 0, "cdate": "2015-01-01T00:00:00+01:00", "gid": 1393, "accessibilite_24_24": "True", "libelle": "Parking avenue du Marechal de Lattre de Tassigny", "implantation": "VOIRIE_PUBLIQUE", "adresse": "60 avenue du Marechal de Lattre de Tassigny 33700 Merignac", "ident": "33281-C-011"}, "geometry": {"type": "Point", "coordinates": [-0.6549087, 44.8459272]}, "record_timestamp": "2022-12-06T05:30:13.941+01:00"},{"datasetid": "st_covoiturage_p", "recordid": "41e8864630d05b9e06c2ab4a24954acb0b23b6cd", "fields": {"geo_point_2d": [44.9540126, -0.5340077], "gestionnaire": "PRIVE", "mdate": "2021-11-18T15:24:02+01:00", "geom_o": "0", "id_local": "61", "insee": "33434", "condition_acces": "LIBRE", "nb_place": 5, "nb_pmr": 0, "geo_shape": {"coordinates": [-0.5340077, 44.9540126], "type": "Point"}, "actif": "True", "nb_irve": 0, "cdate": "2015-01-01T00:00:00+01:00", "gid": 1398, "accessibilite_24_24": "True", "libelle": "Aire Spar Saint-Louis-de-Montferrand", "implantation": "VOIRIE_PRIVEE", "adresse": "8 avenue de la Garonne  33440 Saint-Louis-de-Montferrand", "ident": "33434-C-007"}, "geometry": {"type": "Point", "coordinates": [-0.5340077, 44.9540126]}, "record_timestamp": "2022-12-06T05:30:13.941+01:00"},{"datasetid": "st_covoiturage_p", "recordid": "8ddd1bfafa999cb354b7bb1c5580e4eb08efc1d6", "fields": {"geo_point_2d": [44.9110912, -0.7387398], "gestionnaire": "BORDEAUX_METROPOLE", "mdate": "2021-11-18T15:24:02+01:00", "geom_o": "0", "id_local": "59", "insee": "33376", "condition_acces": "LIBRE", "nb_place": 5, "nb_pmr": 0, "geo_shape": {"coordinates": [-0.7387398, 44.9110912], "type": "Point"}, "actif": "True", "nb_irve": 0, "cdate": "2017-12-05T00:00:00+01:00", "gid": 1399, "accessibilite_24_24": "True", "libelle": "St-Aubin Plaine des sports Escarret", "implantation": "VOIRIE_PUBLIQUE", "adresse": "route de la Serpentine 33160 Saint-Aubin-de-Medoc", "ident": "33376-C-002"}, "geometry": {"type": "Point", "coordinates": [-0.7387398, 44.9110912]}, "record_timestamp": "2022-12-06T05:30:13.941+01:00"},{"datasetid": "st_covoiturage_p", "recordid": "9ad21cb19c5ee000cbed1919c73483f1cdcfa8b8", "fields": {"geo_point_2d": [44.9279174, -0.4789029], "gestionnaire": "BORDEAUX_METROPOLE", "mdate": "2021-11-18T15:24:02+01:00", "geom_o": "0", "id_local": "28", "insee": "33003", "condition_acces": "LIBRE", "nb_place": 5, "nb_pmr": 0, "geo_shape": {"coordinates": [-0.4789029, 44.9279174], "type": "Point"}, "actif": "True", "nb_irve": 0, "cdate": "2018-02-07T09:59:57+01:00", "gid": 1400, "accessibilite_24_24": "True", "libelle": "Ambares Parc Cimetiere", "implantation": "VOIRIE_PUBLIQUE", "adresse": "23 rue Victor Hugo 33340 Ambares-et-Lagrave", "ident": "33003-C-001"}, "geometry": {"type": "Point", "coordinates": [-0.4789029, 44.9279174]}, "record_timestamp": "2022-12-06T05:30:13.941+01:00"},{"datasetid": "st_covoiturage_p", "recordid": "b534dae09f52a0555af5a53180189fb2e92ada52", "fields": {"geo_point_2d": [44.8888244, -0.5176762], "gestionnaire": "TRANSPORTS_BM", "mdate": "2021-11-18T15:24:02+01:00", "geom_o": "0", "id_local": "1", "insee": "33032", "condition_acces": "SOUS_CONDITION", "nb_place": 5, "nb_pmr": 0, "geo_shape": {"coordinates": [-0.5176762, 44.8888244], "type": "Point"}, "actif": "True", "nb_irve": 0, "cdate": "2019-11-15T15:03:23+01:00", "gid": 1407, "accessibilite_24_24": "False", "libelle": "Parc-relais La Gardette (tout public)", "implantation": "PARKING_RELAIS", "adresse": "chemin du Grand Came 33310 Lormont", "ident": "33032-C-002"}, "geometry": {"type": "Point", "coordinates": [-0.5176762, 44.8888244]}, "record_timestamp": "2022-12-06T05:30:13.941+01:00"},{"datasetid": "st_covoiturage_p", "recordid": "38e9b20cbdcc88c85e472e0e9e20d10b636912e4", "fields": {"geo_point_2d": [44.8833531, -0.5687742], "gestionnaire": "TRANSPORTS_BM", "mdate": "2021-11-18T15:24:02+01:00", "geom_o": "0", "id_local": "5", "insee": "33063", "condition_acces": "SOUS_CONDITION", "nb_place": 10, "nb_pmr": 0, "geo_shape": {"coordinates": [-0.5687742, 44.8833531], "type": "Point"}, "actif": "True", "nb_irve": 0, "cdate": "2019-11-15T15:03:23+01:00", "gid": 1410, "accessibilite_24_24": "False", "libelle": "Parc-relais Quarante journeaux", "implantation": "PARKING_RELAIS", "adresse": "rue du Professeur Andre Lavignolle 33000 Bordeaux", "ident": "33063-C-003"}, "geometry": {"type": "Point", "coordinates": [-0.5687742, 44.8833531]}, "record_timestamp": "2022-12-06T05:30:13.941+01:00"},{"datasetid": "st_covoiturage_p", "recordid": "858dd0eaf3c4bbd9ab976143c925926da6d48ed4", "fields": {"geo_point_2d": [44.8885631, -0.6109345], "gestionnaire": "TRANSPORTS_BM", "mdate": "2021-11-18T15:24:02+01:00", "geom_o": "0", "id_local": "10", "insee": "33075", "condition_acces": "SOUS_CONDITION", "nb_place": 5, "nb_pmr": 0, "geo_shape": {"coordinates": [-0.6109345, 44.8885631], "type": "Point"}, "actif": "True", "nb_irve": 0, "cdate": "2019-11-15T15:03:23+01:00", "gid": 1412, "accessibilite_24_24": "False", "libelle": "Parc-relais Gare de Bruges (abonnes Tbm)", "implantation": "PARKING_RELAIS", "adresse": "avenue de Terrefort 33520 Bruges", "ident": "33075-C-004"}, "geometry": {"type": "Point", "coordinates": [-0.6109345, 44.8885631]}, "record_timestamp": "2022-12-06T05:30:13.941+01:00"},{"datasetid": "st_covoiturage_p", "recordid": "b1dde28522c3f944723973758fc691f33a5a6b92", "fields": {"geo_point_2d": [44.858812, -0.668254], "gestionnaire": "TRANSPORTS_BM", "mdate": "2021-11-18T15:24:02+01:00", "geom_o": "0", "id_local": "13", "insee": "33200", "condition_acces": "SOUS_CONDITION", "nb_place": 5, "nb_pmr": 0, "geo_shape": {"coordinates": [-0.668254, 44.858812], "type": "Point"}, "actif": "True", "nb_irve": 0, "cdate": "2019-11-15T15:03:23+01:00", "gid": 1414, "accessibilite_24_24": "False", "libelle": "Parc-relais Le Hailland Rostand", "implantation": "PARKING_RELAIS", "adresse": "rue Adrienne Bolland 33185 Le Haillan", "ident": "33200-C-001"}, "geometry": {"type": "Point", "coordinates": [-0.668254, 44.858812]}, "record_timestamp": "2022-12-06T05:30:13.941+01:00"},{"datasetid": "st_covoiturage_p", "recordid": "ce5f6520ab96f6cf5c91fb7e26a56ba7e2aca7b7", "fields": {"geo_point_2d": [44.8319994, -0.6459841], "gestionnaire": "TRANSPORTS_BM", "mdate": "2021-11-18T15:24:02+01:00", "geom_o": "0", "id_local": "18", "insee": "33281", "condition_acces": "SOUS_CONDITION", "nb_place": 10, "nb_pmr": 0, "geo_shape": {"coordinates": [-0.6459841, 44.8319994], "type": "Point"}, "actif": "True", "nb_irve": 0, "cdate": "2019-11-15T15:03:23+01:00", "gid": 1419, "accessibilite_24_24": "False", "libelle": "Parc-relais des Quatre chemins", "implantation": "PARKING_RELAIS", "adresse": "250 avenue de la Marne 33700 Merignac", "ident": "33281-C-014"}, "geometry": {"type": "Point", "coordinates": [-0.6459841, 44.8319994]}, "record_timestamp": "2022-12-06T05:30:13.941+01:00"},{"datasetid": "st_covoiturage_p", "recordid": "62f8d05caa06b8ed34da25f663f0800160340e8a", "fields": {"geo_point_2d": [44.7937107, -0.6348099], "gestionnaire": "TRANSPORTS_BM", "mdate": "2021-11-18T15:24:02+01:00", "geom_o": "0", "id_local": "22", "insee": "33318", "condition_acces": "SOUS_CONDITION", "nb_place": 6, "nb_pmr": 0, "geo_shape": {"coordinates": [-0.6348099, 44.7937107], "type": "Point"}, "actif": "True", "nb_irve": 0, "cdate": "2019-11-15T15:03:23+01:00", "gid": 1420, "accessibilite_24_24": "False", "libelle": "Parc-relais Bougnard", "implantation": "PARKING_RELAIS", "adresse": "avenue Bougnard 33600 Pessac", "ident": "33318-C-003"}, "geometry": {"type": "Point", "coordinates": [-0.6348099, 44.7937107]}, "record_timestamp": "2022-12-06T05:30:13.941+01:00"},{"datasetid": "st_covoiturage_p", "recordid": "23f49a959796dea68f5f6f9484af2fdadb25f940", "fields": {"geo_point_2d": [44.7938466, -0.657279], "gestionnaire": "TRANSPORTS_BM", "mdate": "2021-11-18T15:24:02+01:00", "geom_o": "0", "id_local": "24", "insee": "33318", "condition_acces": "SOUS_CONDITION", "nb_place": 5, "nb_pmr": 0, "geo_shape": {"coordinates": [-0.657279, 44.7938466], "type": "Point"}, "actif": "True", "nb_irve": 0, "cdate": "2019-11-15T15:03:23+01:00", "gid": 1422, "accessibilite_24_24": "False", "libelle": "Parc-relais Gare de Pessac Alouette", "implantation": "PARKING_RELAIS", "adresse": "rue Notre Dame de Lorette 33600 Pessac", "ident": "33318-C-005"}, "geometry": {"type": "Point", "coordinates": [-0.657279, 44.7938466]}, "record_timestamp": "2022-12-06T05:30:13.941+01:00"},{"datasetid": "st_covoiturage_p", "recordid": "ba8b350f917a5b7b3190adcb8770d98e8f538168", "fields": {"geo_point_2d": [44.8497552, -0.5465349], "gestionnaire": "TRANSPORTS_BM", "mdate": "2021-11-18T15:24:02+01:00", "geom_o": "0", "id_local": "7", "insee": "33063", "condition_acces": "SOUS_CONDITION", "nb_place": 5, "nb_pmr": 0, "geo_shape": {"coordinates": [-0.5465349, 44.8497552], "type": "Point"}, "actif": "True", "nb_irve": 0, "cdate": "2019-11-15T15:03:23+01:00", "gid": 1428, "accessibilite_24_24": "False", "libelle": "Parc-relais Galin", "implantation": "PARKING_RELAIS", "adresse": "rue Gustave Eiffel 33100 Bordeaux", "ident": "33063-C-005"}, "geometry": {"type": "Point", "coordinates": [-0.5465349, 44.8497552]}, "record_timestamp": "2022-12-06T05:30:13.941+01:00"},{"datasetid": "st_covoiturage_p", "recordid": "5660b49f48eb6132f2fc80b7e9b658a0e38c4c92", "fields": {"geo_point_2d": [44.7927816, -0.5334246], "gestionnaire": "PRIVE", "mdate": "2021-11-18T15:24:02+01:00", "geom_o": "0", "id_local": "3", "insee": "33039", "condition_acces": "LIBRE", "nb_place": 78, "nb_pmr": 0, "geo_shape": {"coordinates": [-0.5334246, 44.7927816], "type": "Point"}, "actif": "True", "nb_irve": 0, "cdate": "2020-03-12T10:20:43+01:00", "gid": 1431, "accessibilite_24_24": "True", "libelle": "Centre commercial Rives d'Arcins", "implantation": "VOIRIE_PUBLIQUE", "adresse": "chemin de Tartifume 33130 Begles", "ident": "33039-C-002"}, "geometry": {"type": "Point", "coordinates": [-0.5334246, 44.7927816]}, "record_timestamp": "2022-12-06T05:30:13.941+01:00"},{"datasetid": "st_covoiturage_p", "recordid": "44165293dd31746eef7e62c6a0bcc85fadfb2e05", "fields": {"geo_point_2d": [44.8914308, -0.6660281], "gestionnaire": "PRIVE", "mdate": "2021-11-18T15:24:02+01:00", "geom_o": "0", "id_local": "40", "insee": "33162", "condition_acces": "LIBRE", "nb_place": 5, "nb_pmr": 0, "geo_shape": {"coordinates": [-0.6660281, 44.8914308], "type": "Point"}, "actif": "True", "nb_irve": 0, "cdate": "2015-01-01T00:00:00+01:00", "gid": 1375, "accessibilite_24_24": "True", "libelle": "Centre commercial Super U", "implantation": "VOIRIE_PRIVEE", "adresse": "347 avenue du Taillan-Medoc 33320 Eysines", "ident": "33162-C-008"}, "geometry": {"type": "Point", "coordinates": [-0.6660281, 44.8914308]}, "record_timestamp": "2022-12-06T05:30:13.941+01:00"},{"datasetid": "st_covoiturage_p", "recordid": "8c89e4a7be769549b1d2efa38c8b58150c5c06ca", "fields": {"geo_point_2d": [44.8697194, -0.7028107], "gestionnaire": "BORDEAUX_METROPOLE", "mdate": "2021-11-18T15:24:02+01:00", "geom_o": "0", "id_local": "62", "insee": "33449", "condition_acces": "LIBRE", "nb_place": 5, "nb_pmr": 0, "geo_shape": {"coordinates": [-0.7028107, 44.8697194], "type": "Point"}, "actif": "True", "nb_irve": 0, "cdate": "2015-01-01T00:00:00+01:00", "gid": 1376, "accessibilite_24_24": "True", "libelle": "Parking Feydit", "implantation": "VOIRIE_PUBLIQUE", "adresse": "60 route de Feydit 33160 Saint Medard en Jalles", "ident": "33434-C-003"}, "geometry": {"type": "Point", "coordinates": [-0.7028107, 44.8697194]}, "record_timestamp": "2022-12-06T05:30:13.941+01:00"},{"datasetid": "st_covoiturage_p", "recordid": "5e1129d733006c9428c14f2207c8671067591f94", "fields": {"geo_point_2d": [44.8795219, -0.6345527], "gestionnaire": "BORDEAUX_METROPOLE", "mdate": "2021-11-18T15:24:02+01:00", "geom_o": "0", "id_local": "41", "insee": "33162", "condition_acces": "LIBRE", "nb_place": 4, "nb_pmr": 0, "geo_shape": {"coordinates": [-0.6345527, 44.8795219], "type": "Point"}, "actif": "True", "nb_irve": 0, "cdate": "2015-01-01T00:00:00+01:00", "gid": 1377, "accessibilite_24_24": "True", "libelle": "Parking rue des Treytins", "implantation": "VOIRIE_PUBLIQUE", "adresse": "44 rue des Treytins 33320 Eysines", "ident": "33162-C-009"}, "geometry": {"type": "Point", "coordinates": [-0.6345527, 44.8795219]}, "record_timestamp": "2022-12-06T05:30:13.941+01:00"},{"datasetid": "st_covoiturage_p", "recordid": "705c478129c684b6cb424eb4b34cd256d009d5f3", "fields": {"geo_point_2d": [44.8382593, -0.6160842], "gestionnaire": "BORDEAUX_METROPOLE", "mdate": "2021-11-18T15:24:02+01:00", "geom_o": "0", "id_local": "52", "insee": "33281", "condition_acces": "LIBRE", "nb_place": 5, "nb_pmr": 0, "geo_shape": {"coordinates": [-0.6160842, 44.8382593], "type": "Point"}, "actif": "True", "nb_irve": 0, "cdate": "2015-01-01T00:00:00+01:00", "gid": 1381, "accessibilite_24_24": "True", "libelle": "Place Mondesir", "implantation": "VOIRIE_PUBLIQUE", "adresse": "place Mondesir 33700 Merignac", "ident": "33281-C-008"}, "geometry": {"type": "Point", "coordinates": [-0.6160842, 44.8382593]}, "record_timestamp": "2022-12-06T05:30:13.941+01:00"},{"datasetid": "st_covoiturage_p", "recordid": "89f21e3f37e39ee83b5b6837611f5b87a124eb22", "fields": {"geo_point_2d": [44.8420035, -0.7701859], "gestionnaire": "PRIVE", "mdate": "2021-11-18T15:24:02+01:00", "geom_o": "0", "id_local": "49", "insee": "33273", "condition_acces": "LIBRE", "nb_place": 45, "nb_pmr": 0, "geo_shape": {"coordinates": [-0.7701859, 44.8420035], "type": "Point"}, "actif": "True", "nb_irve": 0, "cdate": "2017-08-31T00:00:00+02:00", "gid": 1386, "accessibilite_24_24": "True", "libelle": "Intermarche de Martignas", "implantation": "VOIRIE_PRIVEE", "adresse": "6 Avenue Colonel Pierre Bourgoin 33127 Martignas-sur-Jalle", "ident": "33273-C-001"}, "geometry": {"type": "Point", "coordinates": [-0.7701859, 44.8420035]}, "record_timestamp": "2022-12-06T05:30:13.941+01:00"},{"datasetid": "st_covoiturage_p", "recordid": "d51092c3b798e8080f726ea5a987904e00822aab", "fields": {"geo_point_2d": [44.8674142, -0.4954912], "gestionnaire": "BORDEAUX_METROPOLE", "mdate": "2021-11-18T15:24:02+01:00", "geom_o": "0", "id_local": "31", "insee": "33013", "condition_acces": "LIBRE", "nb_place": 38, "nb_pmr": 0, "geo_shape": {"coordinates": [-0.4954912, 44.8674142], "type": "Point"}, "actif": "True", "nb_irve": 0, "cdate": "2012-01-01T00:00:00+01:00", "gid": 1387, "accessibilite_24_24": "True", "libelle": "Aire Nelson Paillou Artigues", "implantation": "VOIRIE_PUBLIQUE", "adresse": "6 Avenue de la Prairie 33370 Artigues-pres-Bordeaux", "ident": "33013-C-002"}, "geometry": {"type": "Point", "coordinates": [-0.4954912, 44.8674142]}, "record_timestamp": "2022-12-06T05:30:13.941+01:00"},{"datasetid": "st_covoiturage_p", "recordid": "5514abc3a18aba2a58a63809af1f56b8d70b9512", "fields": {"geo_point_2d": [44.8968156, -0.7218461], "gestionnaire": "BORDEAUX_METROPOLE", "mdate": "2021-11-18T15:24:02+01:00", "geom_o": "0", "id_local": "66", "insee": "33449", "condition_acces": "LIBRE", "nb_place": 5, "nb_pmr": 0, "geo_shape": {"coordinates": [-0.7218461, 44.8968156], "type": "Point"}, "actif": "True", "nb_irve": 0, "cdate": "2015-01-01T00:00:00+01:00", "gid": 1392, "accessibilite_24_24": "True", "libelle": "Gare routiere", "implantation": "VOIRIE_PUBLIQUE", "adresse": "3-7 Avenue du General de Gaulle 33160 Saint Medard en Jalles", "ident": "33434-C-006"}, "geometry": {"type": "Point", "coordinates": [-0.7218461, 44.8968156]}, "record_timestamp": "2022-12-06T05:30:13.941+01:00"},{"datasetid": "st_covoiturage_p", "recordid": "2dde90395efaf098d954d566f47d700108937237", "fields": {"geo_point_2d": [44.8659273, -0.5185209], "gestionnaire": "PRIVE", "mdate": "2021-11-18T15:24:02+01:00", "geom_o": "0", "id_local": "48", "insee": "33249", "condition_acces": "LIBRE", "nb_place": 5, "nb_pmr": 0, "geo_shape": {"coordinates": [-0.5185209, 44.8659273], "type": "Point"}, "actif": "True", "nb_irve": 0, "cdate": "2015-01-01T00:00:00+01:00", "gid": 1396, "accessibilite_24_24": "True", "libelle": "Centre commercial Quatre Pavillons", "implantation": "VOIRIE_PRIVEE", "adresse": "Centre Commercial des Quatre Pavillons 33310 Lormont", "ident": "33249-C-002"}, "geometry": {"type": "Point", "coordinates": [-0.5185209, 44.8659273]}, "record_timestamp": "2022-12-06T05:30:13.941+01:00"},{"datasetid": "st_covoiturage_p", "recordid": "0e2056a26c8f5fc03b02d5b023c95a173eeb4bf7", "fields": {"geo_point_2d": [44.9072891, -0.7255041], "gestionnaire": "BORDEAUX_METROPOLE", "mdate": "2021-11-18T15:24:02+01:00", "geom_o": "0", "id_local": "60", "insee": "33376", "condition_acces": "LIBRE", "nb_place": 5, "nb_pmr": 0, "geo_shape": {"coordinates": [-0.7255041, 44.9072891], "type": "Point"}, "actif": "True", "nb_irve": 0, "cdate": "2018-02-07T09:53:24+01:00", "gid": 1397, "accessibilite_24_24": "True", "libelle": "EuroMedoc", "implantation": "VOIRIE_PUBLIQUE", "adresse": "allee Euromedoc 33160 Saint-Aubin-de-Medoc", "ident": "33376-C-001"}, "geometry": {"type": "Point", "coordinates": [-0.7255041, 44.9072891]}, "record_timestamp": "2022-12-06T05:30:13.941+01:00"},{"datasetid": "st_covoiturage_p", "recordid": "a4493332d83ffe2b2cc09948d63aef4ae83d1b71", "fields": {"geo_point_2d": [45.009081, -0.5280327], "gestionnaire": "BORDEAUX_METROPOLE", "mdate": "2021-11-18T15:24:02+01:00", "geom_o": "0", "id_local": "30", "insee": "33004", "condition_acces": "LIBRE", "nb_place": 2, "nb_pmr": 0, "geo_shape": {"coordinates": [-0.5280327, 45.009081], "type": "Point"}, "actif": "True", "nb_irve": 0, "cdate": "2018-05-24T15:24:08+02:00", "gid": 1402, "accessibilite_24_24": "True", "libelle": "Ambes Place Escarraguel", "implantation": "VOIRIE_PUBLIQUE", "adresse": "place Escarraguel 33810 Ambes", "ident": "33004-C-001"}, "geometry": {"type": "Point", "coordinates": [-0.5280327, 45.009081]}, "record_timestamp": "2022-12-06T05:30:13.941+01:00"},{"datasetid": "st_covoiturage_p", "recordid": "2e59823d054b44207224189fb2af0e57f99d59c8", "fields": {"geo_point_2d": [44.9039575, -0.700942], "gestionnaire": "BORDEAUX_METROPOLE", "mdate": "2021-11-18T15:24:02+01:00", "geom_o": "0", "id_local": "47", "insee": "33519", "condition_acces": "LIBRE", "nb_place": 5, "nb_pmr": 0, "geo_shape": {"coordinates": [-0.700942, 44.9039575], "type": "Point"}, "actif": "True", "nb_irve": 0, "cdate": "2018-09-04T11:52:17+02:00", "gid": 1403, "accessibilite_24_24": "True", "libelle": "Le Taillan Medoc Place Voltaire", "implantation": "VOIRIE_PUBLIQUE", "adresse": "2 place Voltaire Le Taillan Medoc", "ident": "33519-C-003"}, "geometry": {"type": "Point", "coordinates": [-0.700942, 44.9039575]}, "record_timestamp": "2022-12-06T05:30:13.941+01:00"},{"datasetid": "st_covoiturage_p", "recordid": "e119af0daa3df45769d6283c91ff7a839134b63e", "fields": {"geo_point_2d": [44.8292064, -0.5548085], "gestionnaire": "BORDEAUX_METROPOLE", "mdate": "2021-11-18T15:24:02+01:00", "geom_o": "0", "id_local": "36", "insee": "33063", "condition_acces": "LIBRE", "nb_place": 4, "nb_pmr": 0, "geo_shape": {"coordinates": [-0.5548085, 44.8292064], "type": "Point"}, "actif": "True", "nb_irve": 0, "cdate": "2019-02-11T12:43:33+01:00", "gid": 1404, "accessibilite_24_24": "True", "libelle": "Bordeaux Domerq Saint Jean", "implantation": "VOIRIE_PUBLIQUE", "adresse": "rue Charles Domercq-angle quai de Paludate", "ident": "33063-C-001"}, "geometry": {"type": "Point", "coordinates": [-0.5548085, 44.8292064]}, "record_timestamp": "2022-12-06T05:30:13.941+01:00"},{"datasetid": "st_covoiturage_p", "recordid": "5ff19779f346160088128767adad92164a0fc22a", "fields": {"geo_point_2d": [44.8962596, -0.5177095], "gestionnaire": "BORDEAUX_METROPOLE", "mdate": "2021-11-18T15:24:02+01:00", "geom_o": "0", "id_local": "32", "insee": "33032", "condition_acces": "LIBRE", "nb_place": 3, "nb_pmr": 0, "geo_shape": {"coordinates": [-0.5177095, 44.8962596], "type": "Point"}, "actif": "True", "nb_irve": 0, "cdate": "2019-03-14T14:36:51+01:00", "gid": 1405, "accessibilite_24_24": "True", "libelle": "Bassens Rome", "implantation": "VOIRIE_PUBLIQUE", "adresse": "rue de Rome angle avenue Republique 33530 Bassens", "ident": "33032-C-001"}, "geometry": {"type": "Point", "coordinates": [-0.5177095, 44.8962596]}, "record_timestamp": "2022-12-06T05:30:13.941+01:00"},{"datasetid": "st_covoiturage_p", "recordid": "b47c8f83e6d57e9857932132b7ae92185614a86e", "fields": {"geo_point_2d": [44.8755207, -0.5443771], "gestionnaire": "TRANSPORTS_BM", "mdate": "2021-11-18T15:24:02+01:00", "geom_o": "0", "id_local": "4", "insee": "33063", "condition_acces": "SOUS_CONDITION", "nb_place": 5, "nb_pmr": 0, "geo_shape": {"coordinates": [-0.5443771, 44.8755207], "type": "Point"}, "actif": "True", "nb_irve": 0, "cdate": "2019-11-15T15:03:23+01:00", "gid": 1406, "accessibilite_24_24": "False", "libelle": "Parc-relais Brandenburg", "implantation": "PARKING_RELAIS", "adresse": "boulevard Albert Brandenburg 33000 Bordeaux", "ident": "33063-C-002"}, "geometry": {"type": "Point", "coordinates": [-0.5443771, 44.8755207]}, "record_timestamp": "2022-12-06T05:30:13.941+01:00"},{"datasetid": "st_covoiturage_p", "recordid": "c29240391a19f1ac44a258881cfae12ec3893295", "fields": {"geo_point_2d": [44.9181116, -0.6227173], "gestionnaire": "TRANSPORTS_BM", "mdate": "2021-11-18T15:24:02+01:00", "geom_o": "0", "id_local": "9", "insee": "33075", "condition_acces": "SOUS_CONDITION", "nb_place": 5, "nb_pmr": 0, "geo_shape": {"coordinates": [-0.6227173, 44.9181116], "type": "Point"}, "actif": "True", "nb_irve": 0, "cdate": "2019-11-15T15:03:23+01:00", "gid": 1409, "accessibilite_24_24": "False", "libelle": "Parc-relais Gare de Blanquefort", "implantation": "PARKING_RELAIS", "adresse": "rue Jean Duvert 33290 Blanquefort", "ident": "33075-C-003"}, "geometry": {"type": "Point", "coordinates": [-0.6227173, 44.9181116]}, "record_timestamp": "2022-12-06T05:30:13.941+01:00"},{"datasetid": "st_covoiturage_p", "recordid": "0a27b709b7cd607cfaf90956180a1a1688fcfd04", "fields": {"geo_point_2d": [44.8670293, -0.5764142], "gestionnaire": "TRANSPORTS_BM", "mdate": "2021-11-18T15:28:24+01:00", "geom_o": "0", "id_local": "12", "insee": "33069", "condition_acces": "SOUS_CONDITION", "nb_place": 10, "nb_pmr": 0, "geo_shape": {"coordinates": [-0.5764142, 44.8670293], "type": "Point"}, "actif": "True", "nb_irve": 0, "cdate": "2019-11-15T15:03:23+01:00", "gid": 1411, "accessibilite_24_24": "False", "libelle": "Parc-relais Ravezies Le Bouscat", "implantation": "PARKING_RELAIS", "adresse": "allees de Boutaut 33110 Le Bouscat", "ident": "33069-C-001"}, "geometry": {"type": "Point", "coordinates": [-0.5764142, 44.8670293]}, "record_timestamp": "2022-12-06T05:30:13.941+01:00"},{"datasetid": "st_covoiturage_p", "recordid": "c3515b3f0eb53a5f050fe8f5d810d83336286850", "fields": {"geo_point_2d": [44.8450319, -0.5103855], "gestionnaire": "TRANSPORTS_BM", "mdate": "2021-11-18T15:24:02+01:00", "geom_o": "0", "id_local": "11", "insee": "33167", "condition_acces": "SOUS_CONDITION", "nb_place": 5, "nb_pmr": 0, "geo_shape": {"coordinates": [-0.5103855, 44.8450319], "type": "Point"}, "actif": "True", "nb_irve": 0, "cdate": "2019-11-15T15:03:23+01:00", "gid": 1413, "accessibilite_24_24": "False", "libelle": "Parc-relais Floirac Dravemont (abonnes Tbm)", "implantation": "PARKING_RELAIS", "adresse": "rue Salvador Allende 33270 Floirac", "ident": "33167-C-001"}, "geometry": {"type": "Point", "coordinates": [-0.5103855, 44.8450319]}, "record_timestamp": "2022-12-06T05:30:13.941+01:00"},{"datasetid": "st_covoiturage_p", "recordid": "1479775f75e9bf9a80f26bb476c08c02f823a095", "fields": {"geo_point_2d": [44.8878074, -0.5182278], "gestionnaire": "TRANSPORTS_BM", "mdate": "2021-11-18T15:24:02+01:00", "geom_o": "0", "id_local": "14", "insee": "33249", "condition_acces": "SOUS_CONDITION", "nb_place": 5, "nb_pmr": 0, "geo_shape": {"coordinates": [-0.5182278, 44.8878074], "type": "Point"}, "actif": "True", "nb_irve": 0, "cdate": "2019-11-15T15:03:23+01:00", "gid": 1415, "accessibilite_24_24": "False", "libelle": "Parc-relais La Gardette (abonnes Tbm)", "implantation": "PARKING_RELAIS", "adresse": "chemin du Grand Came 33530 Bassens", "ident": "33249-C-003"}, "geometry": {"type": "Point", "coordinates": [-0.5182278, 44.8878074]}, "record_timestamp": "2022-12-06T05:30:13.941+01:00"},{"datasetid": "st_covoiturage_p", "recordid": "73cbf02e5f891a0e79114d54d93ff80bc0967eb8", "fields": {"geo_point_2d": [44.8272037, -0.6256904], "gestionnaire": "TRANSPORTS_BM", "mdate": "2021-11-18T15:24:02+01:00", "geom_o": "0", "id_local": "17", "insee": "33281", "condition_acces": "SOUS_CONDITION", "nb_place": 10, "nb_pmr": 0, "geo_shape": {"coordinates": [-0.6256904, 44.8272037], "type": "Point"}, "actif": "True", "nb_irve": 0, "cdate": "2019-11-15T15:03:23+01:00", "gid": 1418, "accessibilite_24_24": "False", "libelle": "Parc-relais Arlac", "implantation": "PARKING_RELAIS", "adresse": "avenue Francois Mitterrand 33700 Merignac", "ident": "33281-C-013"}, "geometry": {"type": "Point", "coordinates": [-0.6256904, 44.8272037]}, "record_timestamp": "2022-12-06T05:30:13.941+01:00"},{"datasetid": "st_covoiturage_p", "recordid": "1f708aeb44f7d6524e0a64ea5751429f58be69f9", "fields": {"geo_point_2d": [44.7948067, -0.6222788], "gestionnaire": "TRANSPORTS_BM", "mdate": "2021-11-18T15:24:02+01:00", "geom_o": "0", "id_local": "23", "insee": "33318", "condition_acces": "SOUS_CONDITION", "nb_place": 5, "nb_pmr": 0, "geo_shape": {"coordinates": [-0.6222788, 44.7948067], "type": "Point"}, "actif": "True", "nb_irve": 0, "cdate": "2019-11-15T15:03:23+01:00", "gid": 1421, "accessibilite_24_24": "False", "libelle": "Parc-relais Unitec", "implantation": "PARKING_RELAIS", "adresse": "avenue du Docteur Albert Schweitzer 33600 Pessac", "ident": "33318-C-004"}, "geometry": {"type": "Point", "coordinates": [-0.6222788, 44.7948067]}, "record_timestamp": "2022-12-06T05:30:13.941+01:00"},{"datasetid": "st_covoiturage_p", "recordid": "c4637da234aef046b416b95bf54ac805d2f98bf1", "fields": {"geo_point_2d": [44.7884435, -0.6506672], "gestionnaire": "TRANSPORTS_BM", "mdate": "2021-11-18T15:24:02+01:00", "geom_o": "0", "id_local": "25", "insee": "33318", "condition_acces": "SOUS_CONDITION", "nb_place": 5, "nb_pmr": 0, "geo_shape": {"coordinates": [-0.6506672, 44.7884435], "type": "Point"}, "actif": "True", "nb_irve": 0, "cdate": "2019-11-15T15:03:23+01:00", "gid": 1424, "accessibilite_24_24": "False", "libelle": "Parc-relais Cap Metiers", "implantation": "PARKING_RELAIS", "adresse": "allee Heliodore Galienne 33600 Pessac", "ident": "33318-C-006"}, "geometry": {"type": "Point", "coordinates": [-0.6506672, 44.7884435]}, "record_timestamp": "2022-12-06T05:30:13.941+01:00"},{"datasetid": "st_covoiturage_p", "recordid": "aa03dfd9e92e9fd3a6565d43b61be490b4581e55", "fields": {"geo_point_2d": [44.8564518, -0.6605161], "gestionnaire": "TRANSPORTS_BM", "mdate": "2021-11-18T15:24:02+01:00", "geom_o": "0", "id_local": "19", "insee": "33281", "condition_acces": "SOUS_CONDITION", "nb_place": 5, "nb_pmr": 0, "geo_shape": {"coordinates": [-0.6605161, 44.8564518], "type": "Point"}, "actif": "True", "nb_irve": 0, "cdate": "2019-11-15T15:03:23+01:00", "gid": 1425, "accessibilite_24_24": "False", "libelle": "Parc-relais des Pins", "implantation": "PARKING_RELAIS", "adresse": "rue Alphonse Daudet 33700 Merignac", "ident": "33281-C-015"}, "geometry": {"type": "Point", "coordinates": [-0.6605161, 44.8564518]}, "record_timestamp": "2022-12-06T05:30:13.941+01:00"},{"datasetid": "st_covoiturage_p", "recordid": "3f80846e9b9e650a66a815396c4d1d2d7a18a37a", "fields": {"geo_point_2d": [44.7742737, -0.5638564], "gestionnaire": "TRANSPORTS_BM", "mdate": "2021-11-18T15:24:02+01:00", "geom_o": "0", "id_local": "27", "insee": "33550", "condition_acces": "SOUS_CONDITION", "nb_place": 20, "nb_pmr": 0, "geo_shape": {"coordinates": [-0.5638564, 44.7742737], "type": "Point"}, "actif": "True", "nb_irve": 0, "cdate": "2019-11-15T15:03:23+01:00", "gid": 1426, "accessibilite_24_24": "False", "libelle": "Parc-relais Villenave Pyrenees", "implantation": "PARKING_RELAIS", "adresse": "avenue des Pyrenees 33140 Villenave d'Ornon", "ident": "33550-C-001"}, "geometry": {"type": "Point", "coordinates": [-0.5638564, 44.7742737]}, "record_timestamp": "2022-12-06T05:30:13.941+01:00"},{"datasetid": "st_covoiturage_p", "recordid": "2cfc2365f3d90e86cbac15de5128c163ef55d6e4", "fields": {"geo_point_2d": [44.927303, -0.4680705], "gestionnaire": "AUTRE", "mdate": "2021-11-18T15:24:02+01:00", "geom_o": "0", "id_local": "29", "insee": "33003", "condition_acces": "LIBRE", "nb_place": 70, "nb_pmr": 0, "geo_shape": {"coordinates": [-0.4680705, 44.927303], "type": "Point"}, "actif": "False", "nb_irve": 0, "cdate": "2021-06-22T13:42:16+02:00", "gid": 1430, "accessibilite_24_24": "True", "libelle": "Ambares echangeur 42", "implantation": "VOIRIE_PUBLIQUE", "adresse": "chemin de la Hourcade 33440 Ambares", "ident": "33003-C-002"}, "geometry": {"type": "Point", "coordinates": [-0.4680705, 44.927303]}, "record_timestamp": "2022-12-06T05:30:13.941+01:00"},{"datasetid": "st_covoiturage_p", "recordid": "8f46aca1d745ce590dcf82c3672be639700d00fa", "fields": {"geo_point_2d": [44.9193887, -0.6280844], "gestionnaire": "BORDEAUX_METROPOLE", "mdate": "2021-11-18T15:24:02+01:00", "geom_o": "0", "id_local": "33", "insee": "33056", "condition_acces": "LIBRE", "nb_place": 4, "nb_pmr": 0, "geo_shape": {"coordinates": [-0.6280844, 44.9193887], "type": "Point"}, "actif": "True", "nb_irve": 0, "cdate": "2020-12-15T10:15:15+01:00", "gid": 1432, "accessibilite_24_24": "True", "libelle": "Blanquefort 11 Novembre - Duvert", "implantation": "VOIRIE_PUBLIQUE", "adresse": "avenue du 11 novembre-angle avenue Jean Duvert-33290 Blanquefort", "ident": "33056-C-001"}, "geometry": {"type": "Point", "coordinates": [-0.6280844, 44.9193887]}, "record_timestamp": "2022-12-06T05:30:13.941+01:00"},{"datasetid": "st_covoiturage_p", "recordid": "6ce3e14ee9c8d07ea4c4ec0ac61c6925c6042e59", "fields": {"geo_point_2d": [44.944185, -0.5608975], "gestionnaire": "BORDEAUX_METROPOLE", "mdate": "2021-11-18T15:24:02+01:00", "geom_o": "0", "id_local": "20", "insee": "33312", "condition_acces": "LIBRE", "nb_place": 5, "nb_pmr": 0, "geo_shape": {"coordinates": [-0.5608975, 44.944185], "type": "Point"}, "actif": "True", "nb_irve": 0, "cdate": "2021-06-14T16:46:29+02:00", "gid": 1435, "accessibilite_24_24": "True", "libelle": "Parempuyre Palus-Labarde", "implantation": "VOIRIE_PUBLIQUE", "adresse": "chemin des Palus-pres giratoire Labarde 33290 Parempuyre", "ident": "33312-C-003"}, "geometry": {"type": "Point", "coordinates": [-0.5608975, 44.944185]}, "record_timestamp": "2022-12-06T05:30:13.941+01:00"},{"datasetid": "st_covoiturage_p", "recordid": "406d599b696b6a3258f2d45091cafd74dae4788d", "fields": {"geo_point_2d": [44.9477763, -0.6006279], "gestionnaire": "BORDEAUX_METROPOLE", "mdate": "2021-11-18T15:24:02+01:00", "geom_o": "0", "id_local": "21", "insee": "33312", "condition_acces": "LIBRE", "nb_place": 5, "nb_pmr": 0, "geo_shape": {"coordinates": [-0.6006279, 44.9477763], "type": "Point"}, "actif": "False", "nb_irve": 0, "cdate": "2021-06-14T16:46:29+02:00", "gid": 1436, "accessibilite_24_24": "True", "libelle": "Parempuyre Yvan Bric", "implantation": "VOIRIE_PUBLIQUE", "adresse": "place Yvan Bric 33290 Parempuyre", "ident": "33312-C-004"}, "geometry": {"type": "Point", "coordinates": [-0.6006279, 44.9477763]}, "record_timestamp": "2022-12-06T05:30:13.941+01:00"},{"datasetid": "st_covoiturage_p", "recordid": "8dc4a84d29be6fc014ba3cda221f82bb7f023bee", "fields": {"geo_point_2d": [44.8657301, -0.7281449], "gestionnaire": "BORDEAUX_METROPOLE", "mdate": "2021-11-18T15:24:02+01:00", "geom_o": "0", "id_local": "64", "insee": "33434", "condition_acces": "LIBRE", "nb_place": 5, "nb_pmr": 0, "geo_shape": {"coordinates": [-0.7281449, 44.8657301], "type": "Point"}, "actif": "True", "nb_irve": 0, "cdate": "2015-01-01T00:00:00+01:00", "gid": 1373, "accessibilite_24_24": "True", "libelle": "Place Georges Blanc", "implantation": "VOIRIE_PUBLIQUE", "adresse": "1 rue Ulysse Maleyran 33160 Saint Medard en Jalles", "ident": "33434-C-002"}, "geometry": {"type": "Point", "coordinates": [-0.7281449, 44.8657301]}, "record_timestamp": "2022-12-06T05:30:13.941+01:00"},{"datasetid": "st_covoiturage_p", "recordid": "d1c754d1487434599722c50f332088027edd81bd", "fields": {"geo_point_2d": [44.912425, -0.6683557], "gestionnaire": "PRIVE", "mdate": "2021-11-18T15:24:02+01:00", "geom_o": "0", "id_local": "46", "insee": "33519", "condition_acces": "LIBRE", "nb_place": 5, "nb_pmr": 0, "geo_shape": {"coordinates": [-0.6683557, 44.912425], "type": "Point"}, "actif": "True", "nb_irve": 0, "cdate": "2014-01-01T00:00:00+01:00", "gid": 1379, "accessibilite_24_24": "True", "libelle": "Aire Carrefour Market", "implantation": "VOIRIE_PRIVEE", "adresse": "162 avenue de Soulac 33320 Le Taillan Medoc", "ident": "33519-C-002"}, "geometry": {"type": "Point", "coordinates": [-0.6683557, 44.912425]}, "record_timestamp": "2022-12-06T05:30:13.941+01:00"},{"datasetid": "st_covoiturage_p", "recordid": "0dc71bf3b8c820aa4f1bc0e4368f737ac438f23f", "fields": {"geo_point_2d": [44.8616165, -0.6421038], "gestionnaire": "BORDEAUX_METROPOLE", "mdate": "2021-11-18T15:24:02+01:00", "geom_o": "0", "id_local": "43", "insee": "33162", "condition_acces": "LIBRE", "nb_place": 2, "nb_pmr": 0, "geo_shape": {"coordinates": [-0.6421038, 44.8616165], "type": "Point"}, "actif": "True", "nb_irve": 0, "cdate": "2015-01-01T00:00:00+01:00", "gid": 1383, "accessibilite_24_24": "True", "libelle": "Parking Grand Louis", "implantation": "VOIRIE_PUBLIQUE", "adresse": "4 allee Grand Louis 33320 Eysines", "ident": "33162-C-010"}, "geometry": {"type": "Point", "coordinates": [-0.6421038, 44.8616165]}, "record_timestamp": "2022-12-06T05:30:13.941+01:00"},{"datasetid": "st_covoiturage_p", "recordid": "cb75c0ffdbf883f7c918146f95089dc5d832b472", "fields": {"geo_point_2d": [44.9003057, -0.6166964], "gestionnaire": "BORDEAUX_METROPOLE", "mdate": "2021-11-18T15:24:02+01:00", "geom_o": "0", "id_local": "39", "insee": "33075", "condition_acces": "LIBRE", "nb_place": 5, "nb_pmr": 0, "geo_shape": {"coordinates": [-0.6166964, 44.9003057], "type": "Point"}, "actif": "True", "nb_irve": 0, "cdate": "2016-01-01T00:00:00+01:00", "gid": 1385, "accessibilite_24_24": "True", "libelle": "Reserve naturelle de Bruges", "implantation": "VOIRIE_PUBLIQUE", "adresse": "1 avenue du 11 novembre 33520 Bruges", "ident": "33075-C-002"}, "geometry": {"type": "Point", "coordinates": [-0.6166964, 44.9003057]}, "record_timestamp": "2022-12-06T05:30:13.941+01:00"},{"datasetid": "st_covoiturage_p", "recordid": "6f46135dcce09eb2cddfc01d9e037f40e2d36d9b", "fields": {"geo_point_2d": [44.8420838, -0.6673048], "gestionnaire": "BORDEAUX_METROPOLE", "mdate": "2021-11-18T15:24:02+01:00", "geom_o": "0", "id_local": "56", "insee": "33281", "condition_acces": "LIBRE", "nb_place": 5, "nb_pmr": 0, "geo_shape": {"coordinates": [-0.6673048, 44.8420838], "type": "Point"}, "actif": "True", "nb_irve": 0, "cdate": "2015-01-01T00:00:00+01:00", "gid": 1394, "accessibilite_24_24": "True", "libelle": "Place du General Gouraud", "implantation": "VOIRIE_PUBLIQUE", "adresse": "7 rue General de Castelnau 33700 Merignac", "ident": "33281-C-012"}, "geometry": {"type": "Point", "coordinates": [-0.6673048, 44.8420838]}, "record_timestamp": "2022-12-06T05:30:13.941+01:00"},{"datasetid": "st_covoiturage_p", "recordid": "caab782e14738c25f2caae2b806574d1ee684597", "fields": {"geo_point_2d": [44.8731013, -0.6335468], "gestionnaire": "BORDEAUX_METROPOLE", "mdate": "2021-11-18T15:24:02+01:00", "geom_o": "0", "id_local": "45", "insee": "33162", "condition_acces": "LIBRE", "nb_place": 2, "nb_pmr": 0, "geo_shape": {"coordinates": [-0.6335468, 44.8731013], "type": "Point"}, "actif": "True", "nb_irve": 0, "cdate": "2015-01-01T00:00:00+01:00", "gid": 1395, "accessibilite_24_24": "True", "libelle": "Parking rue des Papillons", "implantation": "VOIRIE_PUBLIQUE", "adresse": "20 avenue du Taillan Medoc 33320 Eysines", "ident": "33162-C-012"}, "geometry": {"type": "Point", "coordinates": [-0.6335468, 44.8731013]}, "record_timestamp": "2022-12-06T05:30:13.941+01:00"},{"datasetid": "st_covoiturage_p", "recordid": "3684e5f943c865b041811c181e27bed625ad04cd", "fields": {"geo_point_2d": [44.8151015, -0.5231592], "gestionnaire": "PRIVE", "mdate": "2021-11-18T15:24:02+01:00", "geom_o": "0", "id_local": "37", "insee": "33065", "condition_acces": "LIBRE", "nb_place": 5, "nb_pmr": 0, "geo_shape": {"coordinates": [-0.5231592, 44.8151015], "type": "Point"}, "actif": "True", "nb_irve": 0, "cdate": "2018-05-24T15:22:26+02:00", "gid": 1401, "accessibilite_24_24": "True", "libelle": "Centre commercial Bouliac - Giratoire du Drive", "implantation": "VOIRIE_PRIVEE", "adresse": "acces centre commercial Auchan 33270 Bouliac", "ident": "33065-C-001"}, "geometry": {"type": "Point", "coordinates": [-0.5231592, 44.8151015]}, "record_timestamp": "2022-12-06T05:30:13.941+01:00"}]