stop_id,stop_code,stop_name,stop_desc,stop_lat,stop_lon,zone_id,stop_url,location_type,parent_station,stop_timezone,wheelchair_boarding,level_id,platform_code
"MOBIITI:StopPlace:44878",,"La Gruppe",,45.01333,-0.416217,,,1,,,0,,
"MOBIITI:StopPlace:44636",,"Les Eyres",,45.44248,-1.095777,,,1,,,0,,
"MOBIITI:StopPlace:43546",,"Chasserat",,45.18128,-0.582874,,,1,,,0,,
"MOBIITI:StopPlace:44637",,"Gendarmerie",,45.079006,-1.046135,,,1,,,0,,
"MOBIITI:StopPlace:43545",,"Rte de Niaud",,45.02719,-0.452692,,,1,,,0,,
"MOBIITI:StopPlace:44634",,"Carr. de Daugagnan",,45.43997,-1.064116,,,1,,,0,,
"MOBIITI:StopPlace:43548",,"Bourg",,45.185356,-0.581653,,,1,,,0,,
"MOBIITI:StopPlace:44635",,"Garage Piot",,45.444885,-1.107622,,,1,,,0,,
"MOBIITI:StopPlace:43547",,"Ganache",,45.19362,-0.596344,,,1,,,0,,
"MOBIITI:StopPlace:43789",,"Lycees",,44.86927,-0.523403,,,1,,,0,,
"MOBIITI:StopPlace:43549",,"La Croix",,45.185997,-0.585391,,,1,,,0,,
"MOBIITI:StopPlace:44638",,"ROUTE DE L'HOPITAL",,45.294323,-0.879185,,,1,,,0,,
"MOBIITI:StopPlace:44639",,"Villeneuve",,45.39264,-0.887135,,,1,,,0,,
"MOBIITI:StopPlace:43780",,"Vivier",,44.896137,-0.481458,,,1,,,0,,
"MOBIITI:StopPlace:43540",,"Coll. Val de Saye",,45.138874,-0.409756,,,1,,,0,,
"MOBIITI:StopPlace:43782",,"Cardinal",,44.90026,-0.477769,,,1,,,0,,
"MOBIITI:StopPlace:43781",,"Lot. Jeanjean",,44.90332,-0.477054,,,1,,,0,,
"MOBIITI:StopPlace:44632",,"Chemin Sablé des Pins",,45.40299,-0.986978,,,1,,,0,,
"MOBIITI:StopPlace:43542",,"Gadonne",,45.1683,-0.571617,,,1,,,0,,
"MOBIITI:StopPlace:43784",,"Lot. Les Places",,44.899006,-0.485472,,,1,,,0,,
"MOBIITI:StopPlace:44633",,"Bourg",,45.443645,-1.089214,,,1,,,0,,
"MOBIITI:StopPlace:43541",,"La Botte",,45.16854,-0.576927,,,1,,,0,,
"MOBIITI:StopPlace:43783",,"Baron",,44.897827,-0.477224,,,1,,,0,,
"MOBIITI:StopPlace:44630",,"St Gaux",,45.26877,-0.909934,,,1,,,0,,
"MOBIITI:StopPlace:43544",,"Bourg",,45.17708,-0.564366,,,1,,,0,,
"MOBIITI:StopPlace:44631",,"BLAIGNAN_stade",,45.321075,-0.880832,,,1,,,0,,
"MOBIITI:StopPlace:43543",,"Thibaud",,45.17031,-0.567824,,,1,,,0,,
"MOBIITI:StopPlace:44647",,"Potensac",,45.306786,-0.858776,,,1,,,0,,
"MOBIITI:StopPlace:44889",,"Rue des Chenes",,44.87946,-0.41447,,,1,,,0,,
"MOBIITI:StopPlace:44405",,"Allee des Gravette",,44.801525,-0.83235,,,1,,,0,,
"MOBIITI:StopPlace:43556",,"Prantigarde",,45.0361,-0.460614,,,1,,,0,,
"MOBIITI:StopPlace:44648",,"Le Dez",,45.372578,-1.006529,,,1,,,0,,
"MOBIITI:StopPlace:44406",,"Allee de Saussets",,44.80129,-0.838822,,,1,,,0,,
"MOBIITI:StopPlace:44645",,"Peyressan",,45.316612,-0.839709,,,1,,,0,,
"MOBIITI:StopPlace:44403",,"Allee du Mayne",,44.809673,-0.757833,,,1,,,0,,
"MOBIITI:StopPlace:44646",,"Plautignan",,45.30548,-0.851659,,,1,,,0,,
"MOBIITI:StopPlace:44404",,"Caserne Pompiers",,44.810986,-0.778067,,,1,,,0,,
"MOBIITI:StopPlace:44649",,"Larnac",,45.37542,-1.000045,,,1,,,0,,
"MOBIITI:StopPlace:44407",,"Les Deux Poteaux",,44.81375,-0.726788,,,1,,,0,,
"MOBIITI:StopPlace:44408",,"Coll. Bourran",,44.83768,-0.635313,,,1,,,0,,
"MOBIITI:StopPlace:44881",,"Bourg de Salignac",,45.016552,-0.380423,,,1,,,0,,
"MOBIITI:StopPlace:44640",,"Lot. le Pointon",,45.39313,-0.915082,,,1,,,0,,
"MOBIITI:StopPlace:43551",,"Cave Cooperative",,45.02721,-0.453462,,,1,,,0,,
"MOBIITI:StopPlace:43793",,"Port du Noyer",,44.911148,-0.256588,,,1,,,0,,
"MOBIITI:StopPlace:44880",,"Ecoles d'Aubie",,45.019295,-0.404834,,,1,,,0,,
"MOBIITI:StopPlace:43550",,"Les Rousseaux",,45.172146,-0.586587,,,1,,,0,,
"MOBIITI:StopPlace:43792",,"Bourg",,44.884586,-0.285642,,,1,,,0,,
"MOBIITI:StopPlace:44643",,"Bourg",,45.307438,-0.835657,,,1,,,0,,
"MOBIITI:StopPlace:43553",,"Brillouet",,45.13415,-0.534884,,,1,,,0,,
"MOBIITI:StopPlace:43795",,"Le Poteau",,44.91913,-0.480461,,,1,,,0,,
"MOBIITI:StopPlace:44401",,"Rue de la Peloue",,44.80832,-0.787068,,,1,,,0,,
"MOBIITI:StopPlace:44644",,"Lussan",,45.29925,-0.839194,,,1,,,0,,
"MOBIITI:StopPlace:43552",,"Montizeau",,45.13526,-0.555739,,,1,,,0,,
"MOBIITI:StopPlace:43794",,"Maison Neuve",,44.89472,-0.27408,,,1,,,0,,
"MOBIITI:StopPlace:44402",,"Clairiere St Jean",,44.807106,-0.793822,,,1,,,0,,
"MOBIITI:StopPlace:44641",,"Bourg",,45.3957,-0.895383,,,1,,,0,,
"MOBIITI:StopPlace:43797",,"L'Intendant",,44.877605,-0.376341,,,1,,,0,,
"MOBIITI:StopPlace:44642",,"La Verdasse",,45.38758,-0.905535,,,1,,,0,,
"MOBIITI:StopPlace:43554",,"Gautret",,45.13545,-0.544052,,,1,,,0,,
"MOBIITI:StopPlace:43796",,"Mairie",,44.87054,-0.371596,,,1,,,0,,
"MOBIITI:StopPlace:44884",,"Le Flaman",,44.867397,-0.471104,,,1,,,0,,
"MOBIITI:StopPlace:44400",,"L'Ombriere",,44.794334,-0.862353,,,1,,,0,,
"MOBIITI:StopPlace:44658",,"La Hontane 2",,45.373016,-0.987687,,,1,,,0,,
"MOBIITI:StopPlace:44416",,"Allee de Barlan",,44.80898,-0.766515,,,1,,,0,,
"MOBIITI:StopPlace:44659",,"Mairie",,45.286266,-0.789624,,,1,,,0,,
"MOBIITI:StopPlace:44417",,"Rue Dauphine",,44.81271,-0.744967,,,1,,,0,,
"MOBIITI:StopPlace:44656",,"Le Gadet",,45.367252,-1.012116,,,1,,,0,,
"MOBIITI:StopPlace:44898",,"Eglise",,44.882107,-0.428934,,,1,,,0,,
"MOBIITI:StopPlace:44414",,"Mairie",,44.811367,-0.781704,,,1,,,0,,
"MOBIITI:StopPlace:44657",,"Bourg",,45.362762,-0.977028,,,1,,,0,,
"MOBIITI:StopPlace:43569",,"Galacre",,45.14664,-0.562351,,,1,,,0,,
"MOBIITI:StopPlace:44899",,"Route d'Yvrac",,44.87907,-0.444163,,,1,,,0,,
"MOBIITI:StopPlace:44415",,"Av. de Boulac",,44.81071,-0.752847,,,1,,,0,,
"MOBIITI:StopPlace:44418",,"Chem. de la Rue",,44.92483,-0.832801,,,1,,,0,,
"MOBIITI:StopPlace:44419",,"Bourg",,44.937935,-0.828004,,,1,,,0,,
"MOBIITI:StopPlace:43560",,"Ch Pont  Rivier",,45.04803,-0.470481,,,1,,,0,,
"MOBIITI:StopPlace:44650",,"Gare",,45.36758,-1.001859,,,1,,,0,,
"MOBIITI:StopPlace:44892",,"Av. La Chapelle",,44.87805,-0.451227,,,1,,,0,,
"MOBIITI:StopPlace:44651",,"Semian",,45.369675,-1.021376,,,1,,,0,,
"MOBIITI:StopPlace:44893",,"Cimetiere",,44.866375,-0.490332,,,1,,,0,,
"MOBIITI:StopPlace:43562",,"Les Coureaux",,45.082527,-0.463928,,,1,,,0,,
"MOBIITI:StopPlace:43561",,"St-Leger",,45.076557,-0.461954,,,1,,,0,,
"MOBIITI:StopPlace:44891",,"La Cle des Champs",,44.87897,-0.457842,,,1,,,0,,
"MOBIITI:StopPlace:44654",,"Queyzac",,45.347813,-0.998578,,,1,,,0,,
"MOBIITI:StopPlace:43564",,"Cite Lamothe",,44.991447,-0.444331,,,1,,,0,,
"MOBIITI:StopPlace:44896",,"Allee des Oiseaux",,44.878387,-0.418345,,,1,,,0,,
"MOBIITI:StopPlace:44412",,"College",,44.805836,-0.805811,,,1,,,0,,
"MOBIITI:StopPlace:43563",,"Le Grand Village",,45.065155,-0.466404,,,1,,,0,,
"MOBIITI:StopPlace:44655",,"Carr. des Ourmes",,45.339516,-1.006663,,,1,,,0,,
"MOBIITI:StopPlace:44897",,"La Chaise",,44.87903,-0.426683,,,1,,,0,,
"MOBIITI:StopPlace:44413",,"Saldou",,44.81377,-0.729776,,,1,,,0,,
"MOBIITI:StopPlace:44652",,"La Hontane",,45.366894,-0.988138,,,1,,,0,,
"MOBIITI:StopPlace:43566",,"Quatre Chemins",,44.99967,-0.447542,,,1,,,0,,
"MOBIITI:StopPlace:46831",,"Victor Hugo",,44.89747,-0.497301,,,1,,,0,,
"MOBIITI:StopPlace:44410",,"Allee des Abeilles",,44.800804,-0.786067,,,1,,,0,,
"MOBIITI:StopPlace:44653",,"Les Ourmes 1",,45.34122,-1.003998,,,1,,,0,,
"MOBIITI:StopPlace:43565",,"Lyc. P. Cousteau",,44.989826,-0.449631,,,1,,,0,,
"MOBIITI:StopPlace:44669",,"Bourg",,45.321434,-0.956452,,,1,,,0,,
"MOBIITI:StopPlace:43579",,"Beneteau",,45.139217,-0.466698,,,1,,,0,,
"MOBIITI:StopPlace:44427",,"Salle des Fetes",,44.920864,-0.98761,,,1,,,0,,
"MOBIITI:StopPlace:44428",,"Le Moutchic",,45.00253,-1.135162,,,1,,,0,,
"MOBIITI:StopPlace:43578",,"Maison de la CDC",,45.142727,-0.443124,,,1,,,0,,
"MOBIITI:StopPlace:44667",,"Luc Blanc",,45.298676,-0.971593,,,1,,,0,,
"MOBIITI:StopPlace:44668",,"Pey Broustera",,45.312943,-0.979529,,,1,,,0,,
"MOBIITI:StopPlace:44429",,"Chem. des Bainasses",,45.0043,-1.127438,,,1,,,0,,
"MOBIITI:StopPlace:44661",,"Bourgueyraud",,45.313988,-0.95711,,,1,,,0,,
"MOBIITI:StopPlace:43571",,"Bourdillas",,45.15618,-0.561769,,,1,,,0,,
"MOBIITI:StopPlace:44662",,"Bourg",,45.343636,-0.848837,,,1,,,0,,
"MOBIITI:StopPlace:43570",,"Berthenon",,45.13652,-0.564389,,,1,,,0,,
"MOBIITI:StopPlace:44420",,"Eglise",,44.936634,-0.829986,,,1,,,0,,
"MOBIITI:StopPlace:43573",,"Bourg",,45.17975,-0.549301,,,1,,,0,,
"MOBIITI:StopPlace:44660",,"La Marechale",,45.3092,-0.784998,,,1,,,0,,
"MOBIITI:StopPlace:43572",,"Les Drouillards",,45.16048,-0.556746,,,1,,,0,,
"MOBIITI:StopPlace:43575",,"Bourg de St Antoine",,45.017925,-0.425162,,,1,,,0,,
"MOBIITI:StopPlace:44665",,"Lande Basse",,45.292576,-0.965617,,,1,,,0,,
"MOBIITI:StopPlace:44423",,"Sautuges",,44.877506,-0.935898,,,1,,,0,,
"MOBIITI:StopPlace:44666",,"Le Placet",,45.313194,-0.962012,,,1,,,0,,
"MOBIITI:StopPlace:43574",,"Bret",,45.171654,-0.54966,,,1,,,0,,
"MOBIITI:StopPlace:44424",,"Groupe Scolaire",,44.87849,-0.981446,,,1,,,0,,
"MOBIITI:StopPlace:44663",,"Coudessan",,45.336456,-0.994015,,,1,,,0,,
"MOBIITI:StopPlace:44421",,"Bourg",,44.96578,-0.885348,,,1,,,0,,
"MOBIITI:StopPlace:44664",,"Blanc",,45.309303,-1.001168,,,1,,,0,,
"MOBIITI:StopPlace:44438",,"Rue F. Mauriac",,44.944996,-0.689284,,,1,,,0,,
"MOBIITI:StopPlace:44439",,"Genissan",,44.954933,-0.67531,,,1,,,0,,
"MOBIITI:StopPlace:43589",,"St Urbain",,45.094257,-0.480781,,,1,,,0,,
"MOBIITI:StopPlace:44436",,"Cosec",,44.979946,-1.074546,,,1,,,0,,
"MOBIITI:StopPlace:44678",,"La Lande",,45.345917,-0.884387,,,1,,,0,,
"MOBIITI:StopPlace:44679",,"La Metairie",,45.33926,-0.911195,,,1,,,0,,
"MOBIITI:StopPlace:44437",,"Louens",,44.944897,-0.691324,,,1,,,0,,
"MOBIITI:StopPlace:44672",,"Le Sablonat",,45.348415,-0.82384,,,1,,,0,,
"MOBIITI:StopPlace:43582",,"Stade",,45.134983,-0.451269,,,1,,,0,,
"MOBIITI:StopPlace:44430",,"Ocean",,45.001194,-1.195874,,,1,,,0,,
"MOBIITI:StopPlace:44431",,"Marie Curie",,45.00253,-1.186306,,,1,,,0,,
"MOBIITI:StopPlace:44673",,"Taudinet",,45.311127,-0.96313,,,1,,,0,,
"MOBIITI:StopPlace:43581",,"Eglise",,45.139057,-0.448014,,,1,,,0,,
"MOBIITI:StopPlace:44670",,"Biail",,45.341484,-0.980429,,,1,,,0,,
"MOBIITI:StopPlace:43584",,"Bourg",,45.130505,-0.508209,,,1,,,0,,
"MOBIITI:StopPlace:44671",,"Bourg",,45.35552,-0.825618,,,1,,,0,,
"MOBIITI:StopPlace:43583",,"L'Ombriere",,45.137238,-0.484298,,,1,,,0,,
"MOBIITI:StopPlace:44434",,"Pitrot",,45.00771,-1.112822,,,1,,,0,,
"MOBIITI:StopPlace:44676",,"Bourg",,45.337666,-0.897573,,,1,,,0,,
"MOBIITI:StopPlace:43586",,"Le Pas de Bourg",,45.107555,-0.462034,,,1,,,0,,
"MOBIITI:StopPlace:44435",,"Le Huga",,45.005665,-1.170498,,,1,,,0,,
"MOBIITI:StopPlace:44677",,"Le Sablona",,45.352585,-0.928945,,,1,,,0,,
"MOBIITI:StopPlace:43585",,"La Borderie",,45.127075,-0.456822,,,1,,,0,,
"MOBIITI:StopPlace:44432",,"La Cousteyre",,44.988075,-1.082793,,,1,,,0,,
"MOBIITI:StopPlace:44674",,"Rouman 6 Bis",,45.310947,-1.005748,,,1,,,0,,
"MOBIITI:StopPlace:43588",,"Mairie",,45.11665,-0.402902,,,1,,,0,,
"MOBIITI:StopPlace:45763",,"Collège A. Mauguin",,44.772762,-0.596766,,,1,,,0,,
"MOBIITI:StopPlace:43587",,"Le Pontet",,45.189,-0.603083,,,1,,,0,,
"MOBIITI:StopPlace:44675",,"Rte du Petit Moulin",,45.335815,-0.983161,,,1,,,0,,
"MOBIITI:StopPlace:44433",,"Marina Talaris",,44.9964,-1.088024,,,1,,,0,,
"MOBIITI:StopPlace:43580",,"Pl. de la Liberation",,45.140415,-0.447282,,,1,,,0,,
"MOBIITI:StopPlace:44207",,"Ricotte",,44.68359,-0.51158,,,1,,,0,,
"MOBIITI:StopPlace:44208",,"La Cave",,44.709923,-0.549291,,,1,,,0,,
"MOBIITI:StopPlace:46627","","Collège F. Mauriac","",44.895496,-0.709661,,,1,,,0,,
"MOBIITI:StopPlace:44689",,"Passe de Pechaud",,45.468307,-1.117459,,,1,,,0,,
"MOBIITI:StopPlace:46868","","Le Poteau","",44.86546,-0.473693,,,1,,,0,,
"MOBIITI:StopPlace:44205",,"La Sauque",,44.691307,-0.512052,,,1,,,0,,
"MOBIITI:StopPlace:44206",,"Coudougney",,44.685776,-0.519525,,,1,,,0,,
"MOBIITI:StopPlace:44209",,"Bourg",,44.713627,-0.542849,,,1,,,0,,
"MOBIITI:StopPlace:44441",,"Les Airials",,44.946175,-0.655031,,,1,,,0,,
"MOBIITI:StopPlace:44683",,"Rue des Fontaines",,45.308136,-0.89666,,,1,,,0,,
"MOBIITI:StopPlace:45772","","Avenue de l'Université","",44.801266,-0.594639,,,1,,,0,,
"MOBIITI:StopPlace:44442",,"Mairie",,44.955406,-0.670747,,,1,,,0,,
"MOBIITI:StopPlace:44684",,"Lafon",,45.31226,-0.892498,,,1,,,0,,
"MOBIITI:StopPlace:43592",,"Bourg",,45.081608,-0.492325,,,1,,,0,,
"MOBIITI:StopPlace:44200",,"Gendarmerie",,44.73485,-0.598728,,,1,,,0,,
"MOBIITI:StopPlace:44681",,"Rt Moulin Bourdieu 17",,45.352535,-0.908378,,,1,,,0,,
"MOBIITI:StopPlace:44682",,"Meillan",,45.35676,-0.927352,,,1,,,0,,
"MOBIITI:StopPlace:43594",,"Hotel de Ville",,45.1272,-0.663199,,,1,,,0,,
"MOBIITI:StopPlace:44440",,"Senejac",,44.962715,-0.688876,,,1,,,0,,
"MOBIITI:StopPlace:43597",,"Mairie",,45.028072,-0.440994,,,1,,,0,,
"MOBIITI:StopPlace:44687",,"Jau",,45.41764,-0.973597,,,1,,,0,,
"MOBIITI:StopPlace:44445",,"Rue Cazeau Vieil",,44.993855,-0.693367,,,1,,,0,,
"MOBIITI:StopPlace:44203",,"Bourg",,44.681877,-0.525455,,,1,,,0,,
"MOBIITI:StopPlace:44446",,"Garil Senejac",,44.960705,-0.691438,,,1,,,0,,
"MOBIITI:StopPlace:44688",,"Gare TER",,45.50824,-1.118243,,,1,,,0,,
"MOBIITI:StopPlace:43596",,"Ecole",,45.0686,-0.380842,,,1,,,0,,
"MOBIITI:StopPlace:44204",,"Av. Capdevielle",,44.686928,-0.536312,,,1,,,0,,
"MOBIITI:StopPlace:45777","","Lycée Hôtelier","",44.795654,-0.592404,,,1,,,0,,
"MOBIITI:StopPlace:43599",,"Bourg",,45.030285,-0.441449,,,1,,,0,,
"MOBIITI:StopPlace:44685",,"Bourg",,45.327675,-0.912887,,,1,,,0,,
"MOBIITI:StopPlace:44201",,"Bourg",,44.72873,-0.599854,,,1,,,0,,
"MOBIITI:StopPlace:44443",,"Lyc. J. Duperier",,44.896088,-0.705663,,,1,,,0,,
"MOBIITI:StopPlace:43598",,"La Clie",,45.019676,-0.431197,,,1,,,0,,
"MOBIITI:StopPlace:44686",,"La Hourcade",,45.422035,-0.981152,,,1,,,0,,
"MOBIITI:StopPlace:44444",,"Mairie",,44.998665,-0.688482,,,1,,,0,,
"MOBIITI:StopPlace:44680",,"Le Palena",,45.360386,-0.929147,,,1,,,0,,
"MOBIITI:StopPlace:43590",,"Gravier",,45.077747,-0.499962,,,1,,,0,,
"MOBIITI:StopPlace:44219",,"Av. Gal de Gaulle",,44.752026,-0.533647,,,1,,,0,,
"MOBIITI:StopPlace:44458",,"Le Pontet",,44.949448,-0.685864,,,1,,,0,,
"MOBIITI:StopPlace:45789","","Lycée Kastler","",44.801643,-0.597656,,,1,,,0,,
"MOBIITI:StopPlace:44459",,"Auquin",,44.952644,-0.665051,,,1,,,0,,
"MOBIITI:StopPlace:44452",,"Chem. de l'Eau",,44.948223,-0.632805,,,1,,,0,,
"MOBIITI:StopPlace:44694",,"Dignac",,45.414295,-0.946933,,,1,,,0,,
"MOBIITI:StopPlace:44210",,"Carr. la Morelle",,44.727737,-0.548915,,,1,,,0,,
"MOBIITI:StopPlace:44695",,"Port de Goulee",,45.40492,-0.910842,,,1,,,0,,
"MOBIITI:StopPlace:44211",,"Cimetiere",,44.716022,-0.542554,,,1,,,0,,
"MOBIITI:StopPlace:44453",,"Le Bois de Luget 2",,44.936974,-0.703317,,,1,,,0,,
"MOBIITI:StopPlace:44692",,"Port de Richard",,45.417274,-0.92753,,,1,,,0,,
"MOBIITI:StopPlace:44451",,"Marlene",,44.95248,-0.685902,,,1,,,0,,
"MOBIITI:StopPlace:44693",,"Loirac",,45.397873,-0.965703,,,1,,,0,,
"MOBIITI:StopPlace:44456",,"Rosa Bonheur",,44.947594,-0.643598,,,1,,,0,,
"MOBIITI:StopPlace:44698",,"Cazeaux",,45.24809,-0.879185,,,1,,,0,,
"MOBIITI:StopPlace:44214",,"Haut Tartavisat",,44.708694,-0.555604,,,1,,,0,,
"MOBIITI:StopPlace:44457",,"Scierie",,44.957726,-0.706515,,,1,,,0,,
"MOBIITI:StopPlace:44699",,"Grandes Maisons",,45.542156,-1.076012,,,1,,,0,,
"MOBIITI:StopPlace:44454",,"Gendarmerie",,45.025276,-0.792213,,,1,,,0,,
"MOBIITI:StopPlace:44696",,"La Caussade",,45.238796,-0.875924,,,1,,,0,,
"MOBIITI:StopPlace:44212",,"Le Breyra",,44.71456,-0.551862,,,1,,,0,,
"MOBIITI:StopPlace:45543",,"Collège d'Hastignan",,44.89376,-0.745395,,,1,,,0,,
"MOBIITI:StopPlace:44455",,"Bourg",,45.027172,-0.798074,,,1,,,0,,
"MOBIITI:StopPlace:44697",,"Rue des Primeveres",,45.26089,-0.836852,,,1,,,0,,
"MOBIITI:StopPlace:44213",,"Rte de la Haille",,44.741154,-0.550209,,,1,,,0,,
"MOBIITI:StopPlace:44690",,"Res. la Chenaie",,45.498962,-1.119455,,,1,,,0,,
"MOBIITI:StopPlace:44691",,"Centre",,45.40869,-0.958578,,,1,,,0,,
"MOBIITI:StopPlace:44229",,"Salle Polyvalente",,44.67081,-0.47756,,,1,,,0,,
"MOBIITI:StopPlace:44227",,"Pl. Jeansotte",,44.652225,-0.469799,,,1,,,0,,
"MOBIITI:StopPlace:44228",,"Sarransot",,44.646336,-0.450628,,,1,,,0,,
"MOBIITI:StopPlace:43373",,"Boursereau",,44.96683,-0.393506,,,1,,,0,,
"MOBIITI:StopPlace:44221",,"Eglise",,44.75538,-0.530189,,,1,,,0,,
"MOBIITI:StopPlace:44463",,"Le Bois de Luget 1",,44.932762,-0.698057,,,1,,,0,,
"MOBIITI:StopPlace:44464",,"Bourg",,45.034023,-0.755659,,,1,,,0,,
"MOBIITI:StopPlace:44222",,"Stade",,44.752213,-0.540564,,,1,,,0,,
"MOBIITI:StopPlace:46641","","Lycée du Bâtiment","",44.911457,-0.619288,,,1,,,0,,
"MOBIITI:StopPlace:43375",,"Cazeneuve",,44.979412,-0.354324,,,1,,,0,,
"MOBIITI:StopPlace:44461",,"Beaulieu",,44.959404,-0.709677,,,1,,,0,,
"MOBIITI:StopPlace:43374",,"La Mahelle",,45.012146,-0.353548,,,1,,,0,,
"MOBIITI:StopPlace:44220",,"Tennis",,44.751385,-0.544104,,,1,,,0,,
"MOBIITI:StopPlace:43377",,"Monument Sidi Brahim",,45.01889,-0.314225,,,1,,,0,,
"MOBIITI:StopPlace:44467",,"Le Comte",,44.98387,-0.703972,,,1,,,0,,
"MOBIITI:StopPlace:43376",,"Les Agrières",,44.974426,-0.356443,,,1,,,0,,
"MOBIITI:StopPlace:44226",,"Lacanau",,44.660236,-0.495583,,,1,,,0,,
"MOBIITI:StopPlace:43379",,"La Massonne",,45.032166,-0.306499,,,1,,,0,,
"MOBIITI:StopPlace:44465",,"Allee de Segur",,44.96379,-0.715241,,,1,,,0,,
"MOBIITI:StopPlace:44223",,"Rue de la Peguillere",,44.74579,-0.532085,,,1,,,0,,
"MOBIITI:StopPlace:43378",,"Jean Roux",,45.021385,-0.304929,,,1,,,0,,
"MOBIITI:StopPlace:44466",,"Coll. Panchon",,44.990253,-0.69486,,,1,,,0,,
"MOBIITI:StopPlace:44224",,"Allee Trioublat",,44.74895,-0.530921,,,1,,,0,,
"MOBIITI:StopPlace:44460",,"Pont Bernet",,44.954613,-0.703598,,,1,,,0,,
"MOBIITI:StopPlace:44238",,"Bourg",,44.650173,-0.50433,,,1,,,0,,
"MOBIITI:StopPlace:44239",,"Moussurot",,44.652863,-0.50179,,,1,,,0,,
"MOBIITI:StopPlace:43384",,"La Marche",,44.92306,-0.287405,,,1,,,0,,
"MOBIITI:StopPlace:44232",,"La Rouille",,44.64906,-0.461317,,,1,,,0,,
"MOBIITI:StopPlace:44474",,"Le Chateau",,45.04047,-0.674185,,,1,,,0,,
"MOBIITI:StopPlace:43383",,"Capet",,44.946667,-0.274086,,,1,,,0,,
"MOBIITI:StopPlace:44475",,"Margaux Bourg",,45.043346,-0.677942,,,1,,,0,,
"MOBIITI:StopPlace:43386",,"Le Chêne de Gombaud",,44.939552,-0.283083,,,1,,,0,,
"MOBIITI:StopPlace:44472",,"Cantenac Bourg",,45.028545,-0.653622,,,1,,,0,,
"MOBIITI:StopPlace:44230",,"Larnavey",,44.657635,-0.474845,,,1,,,0,,
"MOBIITI:StopPlace:43385",,"Bourg",,44.923607,-0.271383,,,1,,,0,,
"MOBIITI:StopPlace:44473",,"Issan",,45.03522,-0.668291,,,1,,,0,,
"MOBIITI:StopPlace:44231",,"Les Argelins",,44.666595,-0.478208,,,1,,,0,,
"MOBIITI:StopPlace:43388",,"Naudin",,44.925575,-0.301276,,,1,,,0,,
"MOBIITI:StopPlace:44236",,"Gassies",,44.615963,-0.543329,,,1,,,0,,
"MOBIITI:StopPlace:44478",,"Le Poujeau",,44.948845,-0.630587,,,1,,,0,,
"MOBIITI:StopPlace:43387",,"Loiseau",,44.91912,-0.248127,,,1,,,0,,
"MOBIITI:StopPlace:44237",,"Bourg",,44.6066,-0.553766,,,1,,,0,,
"MOBIITI:StopPlace:44476",,"Centre Commercial",,44.95604,-0.628765,,,1,,,0,,
"MOBIITI:StopPlace:44234",,"Martinet",,44.609905,-0.543812,,,1,,,0,,
"MOBIITI:StopPlace:46655","","Caychac Bourg","",44.929916,-0.634758,,,1,,,0,,
"MOBIITI:StopPlace:43389",,"La Poste",,44.929497,-0.303687,,,1,,,0,,
"MOBIITI:StopPlace:44477",,"La Begorce",,45.04816,-0.690519,,,1,,,0,,
"MOBIITI:StopPlace:44235",,"Entre 2 Mers",,44.61584,-0.542692,,,1,,,0,,
"MOBIITI:StopPlace:43380",,"La Pradelle",,45.021027,-0.309717,,,1,,,0,,
"MOBIITI:StopPlace:44470",,"Chambres Neuves",,44.974884,-0.624153,,,1,,,0,,
"MOBIITI:StopPlace:43382",,"Perron",,44.94156,-0.26968,,,1,,,0,,
"MOBIITI:StopPlace:43381",,"La Gare",,45.022778,-0.300402,,,1,,,0,,
"MOBIITI:StopPlace:44009",,"Bourg",,44.796917,-0.427798,,,1,,,0,,
"MOBIITI:StopPlace:44007",,"Escorgeboeuf",,44.804585,-0.439952,,,1,,,0,,
"MOBIITI:StopPlace:44249",,"Coeur de Bourg",,44.719402,-0.512243,,,1,,,0,,
"MOBIITI:StopPlace:44008",,"Casaubaque",,44.791523,-0.425072,,,1,,,0,,
"MOBIITI:StopPlace:43395",,"Le Basque",,44.9646,-0.306982,,,1,,,0,,
"MOBIITI:StopPlace:44485",,"Les Trois Moulins",,45.00415,-0.625368,,,1,,,0,,
"MOBIITI:StopPlace:44001",,"Berthoumieu",,44.73906,-0.270433,,,1,,,0,,
"MOBIITI:StopPlace:44243",,"Bigard",,44.664803,-0.495355,,,1,,,0,,
"MOBIITI:StopPlace:43394",,"Marot",,44.97655,-0.326293,,,1,,,0,,
"MOBIITI:StopPlace:44486","","Gare TER","",45.004154,-0.61976,,,1,,,0,,
"MOBIITI:StopPlace:44002",,"Dom. du Bois de Chartres",,44.748158,-0.27789,,,1,,,0,,
"MOBIITI:StopPlace:44244",,"Mathalin",,44.6686,-0.494008,,,1,,,0,,
"MOBIITI:StopPlace:43397",,"Eymon",,44.97142,-0.321737,,,1,,,0,,
"MOBIITI:StopPlace:44483",,"Labric",,44.99027,-0.632512,,,1,,,0,,
"MOBIITI:StopPlace:44241",,"Peillic",,44.631393,-0.530548,,,1,,,0,,
"MOBIITI:StopPlace:43396",,"Canet",,44.957817,-0.306641,,,1,,,0,,
"MOBIITI:StopPlace:44000",,"Bourg",,44.77166,-0.312995,,,1,,,0,,
"MOBIITI:StopPlace:44484",,"Bern",,45.006462,-0.6299,,,1,,,0,,
"MOBIITI:StopPlace:44242",,"Curtot",,44.654713,-0.506463,,,1,,,0,,
"MOBIITI:StopPlace:43399",,"Eglise",,44.96769,-0.306316,,,1,,,0,,
"MOBIITI:StopPlace:44005",,"Audigey",,44.776806,-0.258467,,,1,,,0,,
"MOBIITI:StopPlace:44489",,"Les Lauriers",,44.977226,-0.605221,,,1,,,0,,
"MOBIITI:StopPlace:44247",,"La Prade",,44.696922,-0.511657,,,1,,,0,,
"MOBIITI:StopPlace:43398",,"Gaudin",,45.0201,-0.337051,,,1,,,0,,
"MOBIITI:StopPlace:44006",,"Chem. de Raullet",,44.78002,-0.257445,,,1,,,0,,
"MOBIITI:StopPlace:44248",,"Cordon d'Or",,44.71989,-0.518388,,,1,,,0,,
"MOBIITI:StopPlace:44003",,"Pl. du 11 Novembre",,44.734562,-0.264827,,,1,,,0,,
"MOBIITI:StopPlace:44487",,"Rue de l'Europe",,45.00375,-0.622849,,,1,,,0,,
"MOBIITI:StopPlace:44004",,"Pont Traoucat",,44.785316,-0.255116,,,1,,,0,,
"MOBIITI:StopPlace:44246",,"Le Pontet",,44.71023,-0.518274,,,1,,,0,,
"MOBIITI:StopPlace:43391",,"Farideuil",,44.974003,-0.386407,,,1,,,0,,
"MOBIITI:StopPlace:44481",,"Cante Merle",,44.992992,-0.619462,,,1,,,0,,
"MOBIITI:StopPlace:43390",,"Vincent",,44.94639,-0.289223,,,1,,,0,,
"MOBIITI:StopPlace:44482",,"La Grillade",,44.999615,-0.613863,,,1,,,0,,
"MOBIITI:StopPlace:44240",,"Jacoulet",,44.65285,-0.533504,,,1,,,0,,
"MOBIITI:StopPlace:43393",,"Perey",,44.97022,-0.318308,,,1,,,0,,
"MOBIITI:StopPlace:43392",,"Terrachère",,44.9529,-0.306149,,,1,,,0,,
"MOBIITI:StopPlace:44480",,"Labric No26",,44.993664,-0.630702,,,1,,,0,,
"MOBIITI:StopPlace:45349",,"Atlantic Club",,45.351833,-1.146151,,,1,,,0,,
"MOBIITI:StopPlace:44018",,"Lestonnac",,44.822193,-0.460297,,,1,,,0,,
"MOBIITI:StopPlace:44019",,"Bouchon de Robert",,44.80956,-0.478642,,,1,,,0,,
"MOBIITI:StopPlace:44496",,"Paloumey",,44.980682,-0.630475,,,1,,,0,,
"MOBIITI:StopPlace:44012",,"Moulin Vergne",,44.816807,-0.473789,,,1,,,0,,
"MOBIITI:StopPlace:44254",,"Le Reys",,44.673656,-0.493818,,,1,,,0,,
"MOBIITI:StopPlace:46675","","Château Dillon","",44.919273,-0.634756,,,1,,,0,,
"MOBIITI:StopPlace:44497",,"Eglise",,44.982056,-0.603954,,,1,,,0,,
"MOBIITI:StopPlace:44013",,"Croix d'Ardit",,44.80547,-0.497674,,,1,,,0,,
"MOBIITI:StopPlace:44255",,"Roman",,44.68234,-0.511025,,,1,,,0,,
"MOBIITI:StopPlace:44010",,"Rd Pt de Cabirac",,44.81906,-0.473081,,,1,,,0,,
"MOBIITI:StopPlace:46431",,"Lycée Sud Médoc","Bois de Mont",44.905678,-0.714882,,,1,,,0,,
"MOBIITI:StopPlace:44494",,"Malleret",,44.965946,-0.626327,,,1,,,0,,
"MOBIITI:StopPlace:44011",,"Grand Arnaud",,44.80812,-0.493271,,,1,,,0,,
"MOBIITI:StopPlace:44495",,"La Lagune",,44.977867,-0.623294,,,1,,,0,,
"MOBIITI:StopPlace:44016",,"Mairie",,44.813274,-0.474726,,,1,,,0,,
"MOBIITI:StopPlace:44258",,"Av. du Lac",,44.757374,-0.636389,,,1,,,0,,
"MOBIITI:StopPlace:45348",,"Bld Foch",,45.377197,-1.148906,,,1,,,0,,
"MOBIITI:StopPlace:44017",,"Bel Air",,44.820316,-0.468391,,,1,,,0,,
"MOBIITI:StopPlace:44259",,"Lac Vert",,44.742752,-0.64961,,,1,,,0,,
"MOBIITI:StopPlace:44498",,"Lafont",,44.99018,-0.609177,,,1,,,0,,
"MOBIITI:StopPlace:44014",,"Moulin de Sonney",,44.796974,-0.478195,,,1,,,0,,
"MOBIITI:StopPlace:44256",,"Armingas",,44.67301,-0.519321,,,1,,,0,,
"MOBIITI:StopPlace:44499",,"Rosemont",,45.01501,-0.639343,,,1,,,0,,
"MOBIITI:StopPlace:44015",,"Beaugey",,44.803352,-0.480474,,,1,,,0,,
"MOBIITI:StopPlace:44492",,"La Taste",,44.96824,-0.612641,,,1,,,0,,
"MOBIITI:StopPlace:44493",,"Chem. de Garennes",,44.986942,-0.605404,,,1,,,0,,
"MOBIITI:StopPlace:44490",,"La Loubeyre",,44.974827,-0.607123,,,1,,,0,,
"MOBIITI:StopPlace:44491",,"Chat. Paloumey",,44.985737,-0.631091,,,1,,,0,,
"MOBIITI:StopPlace:44023",,"Eglise",,44.781242,-0.411603,,,1,,,0,,
"MOBIITI:StopPlace:44265",,"Centre Commercial",,44.75102,-0.64183,,,1,,,0,,
"MOBIITI:StopPlace:44024",,"La Croix Blanche",,44.78031,-0.362686,,,1,,,0,,
"MOBIITI:StopPlace:44266",,"Salle des Fêtes",,44.526714,-0.657863,,,1,,,0,,
"MOBIITI:StopPlace:45352",,"Centre Helio Marin",,45.363785,-1.145392,,,1,,,0,,
"MOBIITI:StopPlace:44263",,"Bld Broustey",,44.75729,-0.642763,,,1,,,0,,
"MOBIITI:StopPlace:44022",,"Piron",,44.783623,-0.416709,,,1,,,0,,
"MOBIITI:StopPlace:45353",,"Camping Campeole",,45.3699,-1.144727,,,1,,,0,,
"MOBIITI:StopPlace:44264",,"Pres de Petiot",,44.75393,-0.641677,,,1,,,0,,
"MOBIITI:StopPlace:44027",,"Balaude",,44.781624,-0.38532,,,1,,,0,,
"MOBIITI:StopPlace:44269",,"Bourg",,44.60502,-0.770309,,,1,,,0,,
"MOBIITI:StopPlace:44028",,"Les Merles",,44.783226,-0.396091,,,1,,,0,,
"MOBIITI:StopPlace:44025",,"Le Casse",,44.783283,-0.40042,,,1,,,0,,
"MOBIITI:StopPlace:45356",,"Le Blanc",,45.364323,-1.031368,,,1,,,0,,
"MOBIITI:StopPlace:44267",,"Le Sarroc",,44.66209,-0.736407,,,1,,,0,,
"MOBIITI:StopPlace:44026",,"Camping",,44.783157,-0.369893,,,1,,,0,,
"MOBIITI:StopPlace:44268",,"Tournebride",,44.646015,-0.746093,,,1,,,0,,
"MOBIITI:StopPlace:44261",,"La House",,44.74858,-0.641101,,,1,,,0,,
"MOBIITI:StopPlace:45351",,"Ste Catherine",,45.31155,-0.939498,,,1,,,0,,
"MOBIITI:StopPlace:44020",,"Le Moulin",,44.776203,-0.351452,,,1,,,0,,
"MOBIITI:StopPlace:44262",,"Allee du Vivier",,44.75893,-0.637671,,,1,,,0,,
"MOBIITI:StopPlace:44260",,"Quartier Lauray",,44.52719,-0.811644,,,1,,,0,,
"MOBIITI:StopPlace:44034",,"Baragne",,44.749065,-0.45182,,,1,,,0,,
"MOBIITI:StopPlace:44276",,"Le Barbareau",,44.630173,-0.755668,,,1,,,0,,
"MOBIITI:StopPlace:44035",,"Damluc",,44.76539,-0.452113,,,1,,,0,,
"MOBIITI:StopPlace:46696",,"L'Archevêque",,44.88102,-0.508452,,,1,,,0,,
"MOBIITI:StopPlace:44277",,"Le Champ Neuf 2",,44.588337,-0.739049,,,1,,,0,,
"MOBIITI:StopPlace:44032",,"Caserne des Pompiers",,44.839493,-0.558745,,,1,,,0,,
"MOBIITI:StopPlace:44274",,"Le Garde",,44.61,-0.767862,,,1,,,0,,
"MOBIITI:StopPlace:44033",,"Meynac",,44.759422,-0.45258,,,1,,,0,,
"MOBIITI:StopPlace:44275",,"St Jacques",,44.666733,-0.733593,,,1,,,0,,
"MOBIITI:StopPlace:44038",,"Bourg",,44.779514,-0.460663,,,1,,,0,,
"MOBIITI:StopPlace:45369",,"Station Service",,44.875328,-1.086301,,,1,,,0,,
"MOBIITI:StopPlace:44039",,"Le Pin Franc",,44.770763,-0.457363,,,1,,,0,,
"MOBIITI:StopPlace:44036",,"Argenton",,44.75474,-0.435575,,,1,,,0,,
"MOBIITI:StopPlace:45367",,"Lot. Prairie Lescarran",,44.878498,-1.084756,,,1,,,0,,
"MOBIITI:StopPlace:44278",,"La Vignolle",,44.573883,-0.779647,,,1,,,0,,
"MOBIITI:StopPlace:44037",,"La Marqueuse",,44.759457,-0.433209,,,1,,,0,,
"MOBIITI:StopPlace:45368",,"Av. du Medoc",,44.876766,-1.08373,,,1,,,0,,
"MOBIITI:StopPlace:44279",,"Perrin",,44.552193,-0.846271,,,1,,,0,,
"MOBIITI:StopPlace:44030",,"Le Marais",,44.81156,-0.506487,,,1,,,0,,
"MOBIITI:StopPlace:44272",,"Le Champ Neuf 1",,44.58617,-0.740304,,,1,,,0,,
"MOBIITI:StopPlace:46692",,"Collège Lapierre",,44.87394,-0.524359,,,1,,,0,,
"MOBIITI:StopPlace:44031",,"Coll. N. Mandela",,44.83888,-0.533413,,,1,,,0,,
"MOBIITI:StopPlace:44273",,"La Lagune du Merle",,44.672318,-0.730245,,,1,,,0,,
"MOBIITI:StopPlace:44270",,"Ecole Haureuil",,44.579876,-0.730532,,,1,,,0,,
"MOBIITI:StopPlace:44271",,"Gargails 1",,44.6683,-0.790977,,,1,,,0,,
"MOBIITI:StopPlace:44045",,"La Cite",,44.800076,-0.359259,,,1,,,0,,
"MOBIITI:StopPlace:45376",,"Av. Cote d'Argent 39",,44.884212,-1.086238,,,1,,,0,,
"MOBIITI:StopPlace:44046",,"Rivalan",,44.807266,-0.360555,,,1,,,0,,
"MOBIITI:StopPlace:45135",,"Lyc. Nord Bassin",,44.75419,-1.076849,,,1,,,0,,
"MOBIITI:StopPlace:45377",,"Av. Cote d'Argent 48",,44.888004,-1.088447,,,1,,,0,,
"MOBIITI:StopPlace:44043",,"Patagrou",,44.747963,-0.42314,,,1,,,0,,
"MOBIITI:StopPlace:45374",,"Rte de la Jenny",,44.839542,-1.123113,,,1,,,0,,
"MOBIITI:StopPlace:44044",,"Tambourins",,44.754925,-0.448839,,,1,,,0,,
"MOBIITI:StopPlace:45375",,"College",,44.79301,-1.145908,,,1,,,0,,
"MOBIITI:StopPlace:44049",,"Bourg",,44.79989,-0.249008,,,1,,,0,,
"MOBIITI:StopPlace:44047",,"Le Canton",,44.795105,-0.360442,,,1,,,0,,
"MOBIITI:StopPlace:45378",,"Lyc. Nord Bassin 2",,44.752346,-1.078249,,,1,,,0,,
"MOBIITI:StopPlace:44289",,"Beliet",,44.50862,-0.788315,,,1,,,0,,
"MOBIITI:StopPlace:44048",,"Richard",,44.790226,-0.359509,,,1,,,0,,
"MOBIITI:StopPlace:45379",,"Coll. A. Lahaye",,44.746014,-1.087362,,,1,,,0,,
"MOBIITI:StopPlace:44280",,"Lot. du Grand Chemin",,44.551395,-0.861165,,,1,,,0,,
"MOBIITI:StopPlace:44041",,"Mairie",,44.750153,-0.435353,,,1,,,0,,
"MOBIITI:StopPlace:45372",,"La Poste",,44.872604,-1.092199,,,1,,,0,,
"MOBIITI:StopPlace:44283",,"Le Moura",,44.514435,-0.793255,,,1,,,0,,
"MOBIITI:StopPlace:44042",,"La Pastorale",,44.750504,-0.444129,,,1,,,0,,
"MOBIITI:StopPlace:45373",,"Hotel du Porge",,44.868313,-1.089809,,,1,,,0,,
"MOBIITI:StopPlace:46461","","Bouliac Centre Commercial","",44.816612,-0.528018,,,1,,,0,,
"MOBIITI:StopPlace:45370",,"Lescarran",,44.879852,-1.082562,,,1,,,0,,
"MOBIITI:StopPlace:44281",,"Belin",,44.493095,-0.790325,,,1,,,0,,
"MOBIITI:StopPlace:44040",,"Stade",,44.748226,-0.431684,,,1,,,0,,
"MOBIITI:StopPlace:45371",,"La Plaine de Lescarran",,44.87901,-1.084868,,,1,,,0,,
"MOBIITI:StopPlace:44282",,"Piste Cyclable",,44.500618,-0.7899,,,1,,,0,,
"MOBIITI:StopPlace:44056",,"Eglise",,44.7355,-0.37133,,,1,,,0,,
"MOBIITI:StopPlace:45387","","Sainte Croix","Tram C/D",44.831814,-0.559477,,,1,,,0,,
"MOBIITI:StopPlace:44298",,"La Louvetiere",,44.727596,-0.67218,,,1,,,0,,
"MOBIITI:StopPlace:44057",,"Rte du Chateau",,44.79312,-0.334401,,,1,,,0,,
"MOBIITI:StopPlace:45388",,"Centre Commercial",,44.827324,-0.445751,,,1,,,0,,
"MOBIITI:StopPlace:46476",,"Pinel",,44.824642,-0.521439,,,1,,,0,,
"MOBIITI:StopPlace:44299",,"Allee de Coppinger",,44.72737,-0.675173,,,1,,,0,,
"MOBIITI:StopPlace:44054",,"Les Faures",,44.72733,-0.363172,,,1,,,0,,
"MOBIITI:StopPlace:44296",,"La Birade",,44.71553,-0.691812,,,1,,,0,,
"MOBIITI:StopPlace:44055",,"Courcouyac",,44.720203,-0.382229,,,1,,,0,,
"MOBIITI:StopPlace:44297",,"La Peloue",,44.72866,-0.675823,,,1,,,0,,
"MOBIITI:StopPlace:44058",,"Moreau",,44.804096,-0.329967,,,1,,,0,,
"MOBIITI:StopPlace:44059",,"Les Ecoles",,44.73525,-0.359488,,,1,,,0,,
"MOBIITI:StopPlace:44290",,"La Fleur",,44.582363,-0.777124,,,1,,,0,,
"MOBIITI:StopPlace:45380",,"Chat. d'Eau",,44.920612,-0.98877,,,1,,,0,,
"MOBIITI:StopPlace:44291",,"Le Pique",,44.59098,-0.774539,,,1,,,0,,
"MOBIITI:StopPlace:44052",,"Cite Pt Bois",,44.848,-0.329732,,,1,,,0,,
"MOBIITI:StopPlace:44294",,"Av. Compostelle no235",,44.70194,-0.70474,,,1,,,0,,
"MOBIITI:StopPlace:44053",,"Foyer Communal",,44.856396,-0.322998,,,1,,,0,,
"MOBIITI:StopPlace:45384",,"Aire de Covoiturage",,44.83155,-0.400121,,,1,,,0,,
"MOBIITI:StopPlace:44295",,"Av. Compostelle no195b",,44.709255,-0.697718,,,1,,,0,,
"MOBIITI:StopPlace:44050",,"Bourg",,44.725304,-0.438591,,,1,,,0,,
"MOBIITI:StopPlace:45381",,"Salle l'Escoure Ocean",,45.001774,-1.195611,,,1,,,0,,
"MOBIITI:StopPlace:44292",,"Bourg",,44.551037,-0.867235,,,1,,,0,,
"MOBIITI:StopPlace:44051",,"Stade",,44.71243,-0.396703,,,1,,,0,,
"MOBIITI:StopPlace:45382",,"Carreyre",,44.992123,-1.145978,,,1,,,0,,
"MOBIITI:StopPlace:44293",,"Bellevue",,44.731834,-0.666484,,,1,,,0,,
"MOBIITI:StopPlace:44067",,"Le Moulard",,44.83656,-0.319637,,,1,,,0,,
"MOBIITI:StopPlace:44068",,"Le Pin",,44.8342,-0.316755,,,1,,,0,,
"MOBIITI:StopPlace:44065",,"Grand Bois",,44.825436,-0.353543,,,1,,,0,,
"MOBIITI:StopPlace:45397","","Rolle","",45.04089,-0.357202,,,1,,,0,,
"MOBIITI:StopPlace:44066",,"Beaupied",,44.846188,-0.332277,,,1,,,0,,
"MOBIITI:StopPlace:44069",,"Luchey Haut",,44.82549,-0.3206,,,1,,,0,,
"MOBIITI:StopPlace:44060",,"Ecole",,44.802513,-0.339522,,,1,,,0,,
"MOBIITI:StopPlace:44063",,"Bellevue",,44.77267,-0.492765,,,1,,,0,,
"MOBIITI:StopPlace:45394",,"Beaucourt",,45.02072,-0.39113,,,1,,,0,,
"MOBIITI:StopPlace:44064",,"La Ferme",,44.816727,-0.361899,,,1,,,0,,
"MOBIITI:StopPlace:44061",,"Barlan",,44.794632,-0.336849,,,1,,,0,,
"MOBIITI:StopPlace:45393",,"Pont de Cottet",,45.11213,-0.379827,,,1,,,0,,
"MOBIITI:StopPlace:44062",,"Le Breuil",,44.773975,-0.277655,,,1,,,0,,
"MOBIITI:StopPlace:44199",,"Clair Bois",,44.73307,-0.607257,,,1,,,0,,
"MOBIITI:StopPlace:46136","","Collège de Blanquefort","",44.90673,-0.628434,,,1,,,0,,
"MOBIITI:StopPlace:46135","","Lycée Jean Monnet","",44.915993,-0.634654,,,1,,,0,,
"MOBIITI:StopPlace:44198",,"Le Bicon",,44.75228,-0.587946,,,1,,,0,,
"MOBIITI:StopPlace:44191",,"La Bouhume",,44.738167,-0.596049,,,1,,,0,,
"MOBIITI:StopPlace:44192",,"Pireques",,44.74132,-0.596945,,,1,,,0,,
"MOBIITI:StopPlace:44190",,"Chem. Port des Places",,44.72907,-0.519775,,,1,,,0,,
"MOBIITI:StopPlace:44196",,"Centre Commercial",,44.747253,-0.591124,,,1,,,0,,
"MOBIITI:StopPlace:44193",,"Luxeau",,44.73253,-0.599894,,,1,,,0,,
"MOBIITI:StopPlace:44194",,"Le Luc",,44.7457,-0.594086,,,1,,,0,,
"MOBIITI:StopPlace:46158","","Jean Moulin","",44.91241,-0.636292,,,1,,,0,,
"MOBIITI:StopPlace:46161","","Lycée Agricole","",44.917793,-0.633664,,,1,,,0,,
"MOBIITI:StopPlace:43900",,"Graveyron",,44.841152,-0.386528,,,1,,,0,,
"MOBIITI:StopPlace:43903",,"Bon Ange",,44.862415,-0.418181,,,1,,,0,,
"MOBIITI:StopPlace:43904",,"Rivasseau 2",,44.86165,-0.452772,,,1,,,0,,
"MOBIITI:StopPlace:43901",,"Bourg",,44.8423,-0.397902,,,1,,,0,,
"MOBIITI:StopPlace:43902",,"Av. des Trois Lieues",,44.84738,-0.47118,,,1,,,0,,
"MOBIITI:StopPlace:43910",,"Peychon",,44.841015,-0.483525,,,1,,,0,,
"MOBIITI:StopPlace:43911",,"Av. Bons Enfants",,44.82996,-0.448793,,,1,,,0,,
"MOBIITI:StopPlace:43914",,"Melac",,44.83874,-0.489482,,,1,,,0,,
"MOBIITI:StopPlace:43915",,"Hameau de Fabre",,44.850746,-0.454581,,,1,,,0,,
"MOBIITI:StopPlace:43912",,"Clos de Queyron",,44.845734,-0.472592,,,1,,,0,,
"MOBIITI:StopPlace:43913",,"Le Parc",,44.84399,-0.477613,,,1,,,0,,
"MOBIITI:StopPlace:43907",,"Petrus",,44.83944,-0.44785,,,1,,,0,,
"MOBIITI:StopPlace:43908",,"Mairie",,44.847763,-0.463922,,,1,,,0,,
"MOBIITI:StopPlace:43905",,"Bourg",,44.849304,-0.462677,,,1,,,0,,
"MOBIITI:StopPlace:43906",,"Av. Desclaud",,44.83981,-0.46974,,,1,,,0,,
"MOBIITI:StopPlace:43909",,"Lisennes",,44.841145,-0.454841,,,1,,,0,,
"MOBIITI:StopPlace:43920",,"Bourg",,44.850555,-0.439149,,,1,,,0,,
"MOBIITI:StopPlace:43925",,"Gachet",,44.868156,-0.443972,,,1,,,0,,
"MOBIITI:StopPlace:43926",,"Parc de Cadouin",,44.85064,-0.447691,,,1,,,0,,
"MOBIITI:StopPlace:43923",,"Le Vigneau",,44.84549,-0.417886,,,1,,,0,,
"MOBIITI:StopPlace:43924",,"Les Pres de l'Eglise",,44.850967,-0.434748,,,1,,,0,,
"MOBIITI:StopPlace:43918",,"Le Canon",,44.84078,-0.494781,,,1,,,0,,
"MOBIITI:StopPlace:43919",,"Le Verger",,44.85099,-0.457013,,,1,,,0,,
"MOBIITI:StopPlace:43916",,"La Melacaise",,44.839546,-0.489396,,,1,,,0,,
"MOBIITI:StopPlace:43917",,"Les Peupliers",,44.84636,-0.471564,,,1,,,0,,
"MOBIITI:StopPlace:43932",,"Eglise",,44.851387,-0.437728,,,1,,,0,,
"MOBIITI:StopPlace:43933",,"La Barrere",,44.857567,-0.425898,,,1,,,0,,
"MOBIITI:StopPlace:43930",,"Bel Horizon",,44.857395,-0.4421,,,1,,,0,,
"MOBIITI:StopPlace:43931",,"Cadouin",,44.852737,-0.451953,,,1,,,0,,
"MOBIITI:StopPlace:43929",,"Hameau de la Laurence",,44.84937,-0.429375,,,1,,,0,,
"MOBIITI:StopPlace:43927",,"Pont Castaing",,44.849796,-0.429763,,,1,,,0,,
"MOBIITI:StopPlace:43928",,"Touty",,44.857227,-0.438011,,,1,,,0,,
"MOBIITI:StopPlace:43700",,"La Haie",,45.326576,-0.577641,,,1,,,0,,
"MOBIITI:StopPlace:43943",,"Lot. Beausejour 2",,44.82792,-0.43354,,,1,,,0,,
"MOBIITI:StopPlace:43944",,"Lot. Beausejour 1",,44.830135,-0.433132,,,1,,,0,,
"MOBIITI:StopPlace:43702",,"La Croisette",,45.345127,-0.58677,,,1,,,0,,
"MOBIITI:StopPlace:43941",,"Le Petit Cos",,44.831074,-0.397454,,,1,,,0,,
"MOBIITI:StopPlace:43701",,"Res. la Pinede",,45.230705,-0.567576,,,1,,,0,,
"MOBIITI:StopPlace:43942",,"Patenne",,44.83999,-0.400649,,,1,,,0,,
"MOBIITI:StopPlace:43704",,"Chez Pidoux",,45.331432,-0.593916,,,1,,,0,,
"MOBIITI:StopPlace:43947",,"La Relle",,44.82445,-0.440627,,,1,,,0,,
"MOBIITI:StopPlace:43703",,"Bel Air",,45.323692,-0.57696,,,1,,,0,,
"MOBIITI:StopPlace:43948",,"Clos Poujeau",,44.82008,-0.444727,,,1,,,0,,
"MOBIITI:StopPlace:43945",,"Mairie",,44.8241,-0.44681,,,1,,,0,,
"MOBIITI:StopPlace:43946",,"Maison Rouge",,44.825336,-0.430905,,,1,,,0,,
"MOBIITI:StopPlace:43940",,"Av. de la Source",,44.831326,-0.395691,,,1,,,0,,
"MOBIITI:StopPlace:43938",,"La Planteyre",,44.83222,-0.406414,,,1,,,0,,
"MOBIITI:StopPlace:43939",,"Av. Entre deux Mers",,44.832977,-0.407206,,,1,,,0,,
"MOBIITI:StopPlace:43711",,"Fondcaillou",,45.01902,-0.453816,,,1,,,0,,
"MOBIITI:StopPlace:44801",,"Bourg",,45.472427,-1.056814,,,1,,,0,,
"MOBIITI:StopPlace:43710",,"Le Roux",,45.058002,-0.417495,,,1,,,0,,
"MOBIITI:StopPlace:43955",,"Fausse Negre",,44.831303,-0.387657,,,1,,,0,,
"MOBIITI:StopPlace:44802",,"La Tamponnette",,45.05505,-0.779278,,,1,,,0,,
"MOBIITI:StopPlace:43713",,"Communs de Tizac",,45.015137,-0.449255,,,1,,,0,,
"MOBIITI:StopPlace:43952",,"Bariac",,44.825405,-0.313207,,,1,,,0,,
"MOBIITI:StopPlace:43712",,"Matthieu",,45.021046,-0.452052,,,1,,,0,,
"MOBIITI:StopPlace:44800",,"Les Moulins",,45.453674,-1.043669,,,1,,,0,,
"MOBIITI:StopPlace:43715",,"Manon",,45.07628,-0.431687,,,1,,,0,,
"MOBIITI:StopPlace:44805",,"Les Lamberts",,45.02882,-0.830646,,,1,,,0,,
"MOBIITI:StopPlace:43958",,"La Belle Etoile",,44.83202,-0.472271,,,1,,,0,,
"MOBIITI:StopPlace:43714",,"La Bellue",,45.078594,-0.423489,,,1,,,0,,
"MOBIITI:StopPlace:43959",,"Lorient",,44.794117,-0.383984,,,1,,,0,,
"MOBIITI:StopPlace:44806",,"Bouqueyran",,45.048775,-0.797758,,,1,,,0,,
"MOBIITI:StopPlace:43717",,"St Martial",,45.0643,-0.417641,,,1,,,0,,
"MOBIITI:StopPlace:43956",,"Les Sept Freres",,44.830547,-0.382055,,,1,,,0,,
"MOBIITI:StopPlace:44803",,"Grand Poujeaux",,45.077408,-0.744085,,,1,,,0,,
"MOBIITI:StopPlace:43716",,"La Nauve",,45.07537,-0.428415,,,1,,,0,,
"MOBIITI:StopPlace:43957",,"Mairie",,44.80584,-0.393282,,,1,,,0,,
"MOBIITI:StopPlace:44804",,"Guitignan",,45.068462,-0.757194,,,1,,,0,,
"MOBIITI:StopPlace:43950",,"La Chausse",,44.82826,-0.462213,,,1,,,0,,
"MOBIITI:StopPlace:43951",,"Le Poteau",,44.834785,-0.339133,,,1,,,0,,
"MOBIITI:StopPlace:43708",,"Guillou",,45.023968,-0.441813,,,1,,,0,,
"MOBIITI:StopPlace:43949",,"Les Bons Enfants",,44.825386,-0.451458,,,1,,,0,,
"MOBIITI:StopPlace:43709",,"Rue des Fraisiers",,45.02732,-0.446976,,,1,,,0,,
"MOBIITI:StopPlace:43722",,"Le Canton",,45.08096,-0.431665,,,1,,,0,,
"MOBIITI:StopPlace:44812",,"La Cardine",,45.21697,-0.87102,,,1,,,0,,
"MOBIITI:StopPlace:43965",,"Chem. du Lavoir",,44.82254,-0.428001,,,1,,,0,,
"MOBIITI:StopPlace:43721",,"Le Tasta",,45.080154,-0.427865,,,1,,,0,,
"MOBIITI:StopPlace:44813",,"Bourg",,45.22726,-0.831508,,,1,,,0,,
"MOBIITI:StopPlace:43724",,"Sabourin La Lande",,45.08495,-0.450818,,,1,,,0,,
"MOBIITI:StopPlace:44810",,"Medrac",,45.081978,-0.752358,,,1,,,0,,
"MOBIITI:StopPlace:43963",,"Ecole",,44.820427,-0.438063,,,1,,,0,,
"MOBIITI:StopPlace:43723",,"Methee",,45.087906,-0.441739,,,1,,,0,,
"MOBIITI:StopPlace:44811",,"Le Puy",,45.226635,-0.810341,,,1,,,0,,
"MOBIITI:StopPlace:43964",,"Lot. le Bocage",,44.822247,-0.432423,,,1,,,0,,
"MOBIITI:StopPlace:43726",,"Vincent",,45.088703,-0.437641,,,1,,,0,,
"MOBIITI:StopPlace:43969",,"Roux",,44.829193,-0.414731,,,1,,,0,,
"MOBIITI:StopPlace:44816",,"Le Linas",,45.229336,-0.857035,,,1,,,0,,
"MOBIITI:StopPlace:43725",,"Fouquet",,45.08459,-0.459189,,,1,,,0,,
"MOBIITI:StopPlace:44817",,"Le Luc",,45.230587,-0.821314,,,1,,,0,,
"MOBIITI:StopPlace:43728",,"Colas Brard",,45.04573,-0.369995,,,1,,,0,,
"MOBIITI:StopPlace:44814",,"La Mouline",,45.218384,-0.849044,,,1,,,0,,
"MOBIITI:StopPlace:43727",,"Landreau",,45.089535,-0.400805,,,1,,,0,,
"MOBIITI:StopPlace:43968",,"Langlois",,44.812225,-0.39172,,,1,,,0,,
"MOBIITI:StopPlace:44815",,"Cimetiere",,45.232502,-0.832864,,,1,,,0,,
"MOBIITI:StopPlace:43962",,"La Fraise",,44.81546,-0.447891,,,1,,,0,,
"MOBIITI:StopPlace:43720",,"Les Trois Maines",,45.07456,-0.413603,,,1,,,0,,
"MOBIITI:StopPlace:43960",,"Pineau",,44.80116,-0.391773,,,1,,,0,,
"MOBIITI:StopPlace:43719",,"La Gravette",,45.064724,-0.407793,,,1,,,0,,
"MOBIITI:StopPlace:44809",,"Chaux",,45.050606,-0.780137,,,1,,,0,,
"MOBIITI:StopPlace:43718",,"Chadeuil",,45.073303,-0.421173,,,1,,,0,,
"MOBIITI:StopPlace:44807",,"Stade",,45.05769,-0.772492,,,1,,,0,,
"MOBIITI:StopPlace:44808",,"Eglise",,45.059357,-0.771361,,,1,,,0,,
"MOBIITI:StopPlace:43976",,"Bourg",,44.768616,-0.272408,,,1,,,0,,
"MOBIITI:StopPlace:44823",,"La Prairie",,45.148,-0.824115,,,1,,,0,,
"MOBIITI:StopPlace:43977",,"Chanterot",,44.75519,-0.286665,,,1,,,0,,
"MOBIITI:StopPlace:44824",,"La Pinede",,45.141567,-0.810291,,,1,,,0,,
"MOBIITI:StopPlace:44821",,"La Chatole",,45.165943,-0.810373,,,1,,,0,,
"MOBIITI:StopPlace:43735",,"Maucaillou",,44.920425,-0.370388,,,1,,,0,,
"MOBIITI:StopPlace:44822",,"Garric",,45.133198,-0.853773,,,1,,,0,,
"MOBIITI:StopPlace:43734",,"Graney",,44.914997,-0.34062,,,1,,,0,,
"MOBIITI:StopPlace:43975",,"Rd Pt de la Barade",,44.76897,-0.457548,,,1,,,0,,
"MOBIITI:StopPlace:44827",,"Le Puy",,45.159576,-0.815641,,,1,,,0,,
"MOBIITI:StopPlace:43737",,"Centre",,44.90834,-0.471667,,,1,,,0,,
"MOBIITI:StopPlace:44828",,"Mouralet",,45.128674,-0.789671,,,1,,,0,,
"MOBIITI:StopPlace:43736",,"Maurel",,44.90732,-0.474977,,,1,,,0,,
"MOBIITI:StopPlace:43978",,"Le Canton",,44.765293,-0.275365,,,1,,,0,,
"MOBIITI:StopPlace:44825",,"Lamothe",,45.14077,-0.806722,,,1,,,0,,
"MOBIITI:StopPlace:43739",,"Ecoles",,44.919567,-0.358678,,,1,,,0,,
"MOBIITI:StopPlace:43979",,"J. Guillos",,44.774754,-0.268458,,,1,,,0,,
"MOBIITI:StopPlace:44826",,"Labat",,45.130486,-0.782167,,,1,,,0,,
"MOBIITI:StopPlace:43738",,"Eglise",,44.920887,-0.365737,,,1,,,0,,
"MOBIITI:StopPlace:43972",,"Mairie",,44.81959,-0.412504,,,1,,,0,,
"MOBIITI:StopPlace:43973",,"Peychau",,44.818275,-0.401027,,,1,,,0,,
"MOBIITI:StopPlace:44820",,"Margales",,45.23107,-0.869327,,,1,,,0,,
"MOBIITI:StopPlace:43970",,"Guyonnet",,44.82496,-0.396056,,,1,,,0,,
"MOBIITI:StopPlace:43971",,"Les Gachets",,44.823196,-0.400725,,,1,,,0,,
"MOBIITI:StopPlace:45909",,"Lycée Daguin",,44.837036,-0.648902,,,1,,,0,,
"MOBIITI:StopPlace:44818",,"Les Gunes",,45.22696,-0.843797,,,1,,,0,,
"MOBIITI:StopPlace:44819",,"Les Tuilieres",,45.23134,-0.863415,,,1,,,0,,
"MOBIITI:StopPlace:43987",,"Le Carpe",,44.763237,-0.40311,,,1,,,0,,
"MOBIITI:StopPlace:44834",,"Chem. des Vanneaux",,45.50841,-1.109228,,,1,,,0,,
"MOBIITI:StopPlace:43502",,"Port de Plagne",,44.990883,-0.466677,,,1,,,0,,
"MOBIITI:StopPlace:43744",,"Loume",,44.91244,-0.474976,,,1,,,0,,
"MOBIITI:StopPlace:43988",,"Les Mignons",,44.762993,-0.39431,,,1,,,0,,
"MOBIITI:StopPlace:44835",,"Jeune Soulac",,45.50618,-1.09834,,,1,,,0,,
"MOBIITI:StopPlace:43501",,"Chem. de Pineau",,45.004734,-0.468283,,,1,,,0,,
"MOBIITI:StopPlace:43743",,"L'Argentiere",,44.917175,-0.47657,,,1,,,0,,
"MOBIITI:StopPlace:43985",,"Vienne",,44.769855,-0.488371,,,1,,,0,,
"MOBIITI:StopPlace:44832",,"Chat. Corconnac",,45.126205,-0.806891,,,1,,,0,,
"MOBIITI:StopPlace:43504",,"Gare TER",,44.99123,-0.441517,,,1,,,0,,
"MOBIITI:StopPlace:43746",,"Gare Routiere",,44.91487,-0.237262,,,1,,,0,,
"MOBIITI:StopPlace:43986",,"Fontbonne",,44.772728,-0.487419,,,1,,,0,,
"MOBIITI:StopPlace:44833",,"Courbiac",,45.1201,-0.796157,,,1,,,0,,
"MOBIITI:StopPlace:43503",,"Res. Cheval Blanc",,44.99092,-0.450964,,,1,,,0,,
"MOBIITI:StopPlace:43745",,"Bourg",,44.880527,-0.461688,,,1,,,0,,
"MOBIITI:StopPlace:43506",,"Coll. La Garosse",,45.005173,-0.431785,,,1,,,0,,
"MOBIITI:StopPlace:43748",,"Crs des Girondins",,44.91133,-0.243749,,,1,,,0,,
"MOBIITI:StopPlace:43505",,"Chem. J. Fortin",,44.998684,-0.459159,,,1,,,0,,
"MOBIITI:StopPlace:43747",,"De Lattre de Tassigny",,44.912666,-0.247435,,,1,,,0,,
"MOBIITI:StopPlace:43508",,"Maillos",,44.97858,-0.426817,,,1,,,0,,
"MOBIITI:StopPlace:43989",,"La Verrerie",,44.766953,-0.364939,,,1,,,0,,
"MOBIITI:StopPlace:43507",,"Rue Ste Anne",,44.99155,-0.448074,,,1,,,0,,
"MOBIITI:StopPlace:43749",,"La Poste",,44.91329,-0.39544,,,1,,,0,,
"MOBIITI:StopPlace:43980",,"Eglise",,44.76524,-0.488814,,,1,,,0,,
"MOBIITI:StopPlace:43983",,"Bavolier",,44.766953,-0.478254,,,1,,,0,,
"MOBIITI:StopPlace:44830",,"Bourg",,45.1658,-0.741557,,,1,,,0,,
"MOBIITI:StopPlace:43740",,"Le Pin",,44.917065,-0.348954,,,1,,,0,,
"MOBIITI:StopPlace:43984",,"Garaude",,44.767033,-0.482739,,,1,,,0,,
"MOBIITI:StopPlace:44831",,"Le Vivey",,45.13909,-0.803547,,,1,,,0,,
"MOBIITI:StopPlace:43981",,"Jossim",,44.769714,-0.435381,,,1,,,0,,
"MOBIITI:StopPlace:43500",,"Pass. Peyrot",,45.008434,-0.473639,,,1,,,0,,
"MOBIITI:StopPlace:43742",,"Les Places",,44.902775,-0.490465,,,1,,,0,,
"MOBIITI:StopPlace:43982",,"La Lande",,44.768032,-0.466582,,,1,,,0,,
"MOBIITI:StopPlace:43741",,"Le Marquisat",,44.90318,-0.483997,,,1,,,0,,
"MOBIITI:StopPlace:44829",,"Beychevelle",,45.147705,-0.7415,,,1,,,0,,
"MOBIITI:StopPlace:44603",,"Chem. de la Foret 64",,45.27246,-0.928931,,,1,,,0,,
"MOBIITI:StopPlace:43513",,"Maison Franche",,45.071983,-0.628126,,,1,,,0,,
"MOBIITI:StopPlace:43755",,"Coll. M. Linder",,44.90987,-0.427601,,,1,,,0,,
"MOBIITI:StopPlace:43998",,"Aire de Covoiturage",,44.77856,-0.495458,,,1,,,0,,
"MOBIITI:StopPlace:43999",,"La Tuiliere",,44.774242,-0.301959,,,1,,,0,,
"MOBIITI:StopPlace:44604",,"Troussas",,45.383553,-0.881277,,,1,,,0,,
"MOBIITI:StopPlace:43512",,"Camp Haut",,45.068913,-0.622752,,,1,,,0,,
"MOBIITI:StopPlace:43754",,"ZI de la Lande",,44.92089,-0.451338,,,1,,,0,,
"MOBIITI:StopPlace:43996",,"Chalon",,44.76466,-0.383878,,,1,,,0,,
"MOBIITI:StopPlace:44601",,"Le Luc",,45.193703,-1.067235,,,1,,,0,,
"MOBIITI:StopPlace:43515",,"Le Breuil",,45.060482,-0.60813,,,1,,,0,,
"MOBIITI:StopPlace:43757",,"Soupetard",,44.914093,-0.441704,,,1,,,0,,
"MOBIITI:StopPlace:43997",,"Platon",,44.768776,-0.421376,,,1,,,0,,
"MOBIITI:StopPlace:44602",,"Cartignac",,45.20698,-1.076711,,,1,,,0,,
"MOBIITI:StopPlace:43514",,"Le Rigalet",,45.06073,-0.620506,,,1,,,0,,
"MOBIITI:StopPlace:43756",,"Poumey",,44.90909,-0.441458,,,1,,,0,,
"MOBIITI:StopPlace:44607",,"Front de Mer",,45.378845,-1.153393,,,1,,,0,,
"MOBIITI:StopPlace:43517",,"Bourg",,45.049095,-0.583569,,,1,,,0,,
"MOBIITI:StopPlace:43759",,"Couvertaire",,44.916405,-0.446413,,,1,,,0,,
"MOBIITI:StopPlace:44608",,"Le Desertat",,45.34982,-1.057014,,,1,,,0,,
"MOBIITI:StopPlace:43516",,"Marmisson",,45.070526,-0.631151,,,1,,,0,,
"MOBIITI:StopPlace:43758",,"Couquet",,44.914692,-0.443632,,,1,,,0,,
"MOBIITI:StopPlace:44605",,"Aire de Loisirs",,45.395145,-0.895201,,,1,,,0,,
"MOBIITI:StopPlace:43519",,"Le Pont du Moron",,45.03715,-0.5081,,,1,,,0,,
"MOBIITI:StopPlace:44606",,"Av. de l'Europe",,45.377068,-1.143758,,,1,,,0,,
"MOBIITI:StopPlace:43518",,"La Lustre",,45.038486,-0.519918,,,1,,,0,,
"MOBIITI:StopPlace:43990",,"Gendarmerie",,44.772842,-0.345739,,,1,,,0,,
"MOBIITI:StopPlace:43991",,"Centre Commercial",,44.772003,-0.33695,,,1,,,0,,
"MOBIITI:StopPlace:43751",,"Jean Videau",,44.919514,-0.439393,,,1,,,0,,
"MOBIITI:StopPlace:43994",,"La Croix",,44.770924,-0.352507,,,1,,,0,,
"MOBIITI:StopPlace:44600",,"Chem. de Crabot",,45.43553,-1.051832,,,1,,,0,,
"MOBIITI:StopPlace:43750",,"Bourg",,44.917202,-0.428828,,,1,,,0,,
"MOBIITI:StopPlace:43995",,"Riboutet",,44.771687,-0.335423,,,1,,,0,,
"MOBIITI:StopPlace:43511",,"Bourg",,45.064003,-0.617287,,,1,,,0,,
"MOBIITI:StopPlace:43753",,"Les Graves",,44.915108,-0.416689,,,1,,,0,,
"MOBIITI:StopPlace:43992",,"ZA Les Platanes",,44.769318,-0.446738,,,1,,,0,,
"MOBIITI:StopPlace:43510",,"Rue Cdt Cousteau",,44.99344,-0.45208,,,1,,,0,,
"MOBIITI:StopPlace:43752",,"L'Olivey",,44.915775,-0.420402,,,1,,,0,,
"MOBIITI:StopPlace:43993",,"Office du Tourisme",,44.776093,-0.349632,,,1,,,0,,
"MOBIITI:StopPlace:43509",,"Cimetiere",,44.986336,-0.45015,,,1,,,0,,
"MOBIITI:StopPlace:44614",,"Coll. Notre Dame",,45.307972,-0.937673,,,1,,,0,,
"MOBIITI:StopPlace:43524",,"Maison du Vin",,45.040604,-0.554823,,,1,,,0,,
"MOBIITI:StopPlace:43766",,"Le Paradis",,44.9113,-0.326019,,,1,,,0,,
"MOBIITI:StopPlace:44615",,"Conneau",,45.272934,-0.930018,,,1,,,0,,
"MOBIITI:StopPlace:43523",,"La Croix",,45.04128,-0.547357,,,1,,,0,,
"MOBIITI:StopPlace:43765",,"Gare",,44.89744,-0.316433,,,1,,,0,,
"MOBIITI:StopPlace:44612",,"Office du Tourisme",,45.377766,-1.148467,,,1,,,0,,
"MOBIITI:StopPlace:43526",,"Pisselievre",,45.0733,-0.581933,,,1,,,0,,
"MOBIITI:StopPlace:43768",,"Coin",,44.895775,-0.332566,,,1,,,0,,
"MOBIITI:StopPlace:44613",,"Ets Scolaires",,45.299595,-0.926171,,,1,,,0,,
"MOBIITI:StopPlace:43525",,"Camillac",,45.045815,-0.574659,,,1,,,0,,
"MOBIITI:StopPlace:43767",,"Avenue de la Gare",,44.902355,-0.322422,,,1,,,0,,
"MOBIITI:StopPlace:44618",,"Les Marceaux",,45.295685,-0.89189,,,1,,,0,,
"MOBIITI:StopPlace:43528",,"Cimetiere",,45.038998,-0.496496,,,1,,,0,,
"MOBIITI:StopPlace:44619",,"Plassan",,45.276382,-0.944805,,,1,,,0,,
"MOBIITI:StopPlace:43527",,"Mairie",,45.032932,-0.492844,,,1,,,0,,
"MOBIITI:StopPlace:43769",,"La Ricodonne",,44.922855,-0.46504,,,1,,,0,,
"MOBIITI:StopPlace:44616",,"Gare TER",,45.30391,-0.945401,,,1,,,0,,
"MOBIITI:StopPlace:43529",,"Jolias",,45.039238,-0.487126,,,1,,,0,,
"MOBIITI:StopPlace:44617",,"Canquillac",,45.288082,-0.902542,,,1,,,0,,
"MOBIITI:StopPlace:43760",,"La Coupole",,44.9149,-0.42414,,,1,,,0,,
"MOBIITI:StopPlace:44610",,"Bourg",,45.356407,-1.060208,,,1,,,0,,
"MOBIITI:StopPlace:43520",,"Le Ligat",,45.03992,-0.53598,,,1,,,0,,
"MOBIITI:StopPlace:43762",,"Segransan",,44.889008,-0.308372,,,1,,,0,,
"MOBIITI:StopPlace:44611",,"Les Pigaux",,45.3183,-1.036501,,,1,,,0,,
"MOBIITI:StopPlace:43761",,"Nioton",,44.89868,-0.320331,,,1,,,0,,
"MOBIITI:StopPlace:43522",,"Allees F. Daleau",,45.04091,-0.557631,,,1,,,0,,
"MOBIITI:StopPlace:43764",,"Les Placettes",,44.908157,-0.323691,,,1,,,0,,
"MOBIITI:StopPlace:43521",,"Coll. J. Prevert",,45.041187,-0.555194,,,1,,,0,,
"MOBIITI:StopPlace:43763",,"La Pompe",,44.896343,-0.313753,,,1,,,0,,
"MOBIITI:StopPlace:44609",,"La Moulineyre",,45.36536,-1.086022,,,1,,,0,,
"MOBIITI:StopPlace:44625",,"Artiguillon",,45.27248,-0.886331,,,1,,,0,,
"MOBIITI:StopPlace:43535",,"Les Ecoles",,45.10461,-0.6481,,,1,,,0,,
"MOBIITI:StopPlace:43777",,"Petit Bois",,44.896225,-0.394722,,,1,,,0,,
"MOBIITI:StopPlace:44626",,"Miqueu",,45.279724,-0.874063,,,1,,,0,,
"MOBIITI:StopPlace:43534",,"La Manderaude",,45.099194,-0.641085,,,1,,,0,,
"MOBIITI:StopPlace:43776",,"Stade",,44.90247,-0.379983,,,1,,,0,,
"MOBIITI:StopPlace:44623",,"Les Payots",,45.36069,-1.078142,,,1,,,0,,
"MOBIITI:StopPlace:43537",,"Salle des Fetes",,45.140507,-0.393386,,,1,,,0,,
"MOBIITI:StopPlace:43779",,"Blouin",,44.900784,-0.487932,,,1,,,0,,
"MOBIITI:StopPlace:44624",,"Les Garrouils",,45.328613,-1.050839,,,1,,,0,,
"MOBIITI:StopPlace:43536",,"Embarcadere",,45.124798,-0.664519,,,1,,,0,,
"MOBIITI:StopPlace:43778",,"Bois Mazan",,44.895008,-0.37887,,,1,,,0,,
"MOBIITI:StopPlace:44629",,"Liard",,45.275955,-0.915084,,,1,,,0,,
"MOBIITI:StopPlace:43539",,"Av Gal Gaulle",,45.14078,-0.401472,,,1,,,0,,
"MOBIITI:StopPlace:43538",,"Gare TER",,45.13907,-0.39322,,,1,,,0,,
"MOBIITI:StopPlace:44627",,"L'Hopital",,45.2982,-0.875975,,,1,,,0,,
"MOBIITI:StopPlace:44628",,"Lagune",,45.258247,-0.901572,,,1,,,0,,
"MOBIITI:StopPlace:43771",,"Le Ribet",,44.915085,-0.388871,,,1,,,0,,
"MOBIITI:StopPlace:43770",,"Pl. l'Ormeau",,44.88565,-0.398553,,,1,,,0,,
"MOBIITI:StopPlace:44621",,"Sarnac",,45.347607,-1.053175,,,1,,,0,,
"MOBIITI:StopPlace:43531",,"Coubet",,45.02815,-0.484211,,,1,,,0,,
"MOBIITI:StopPlace:43773",,"Le Bouey",,44.90632,-0.385928,,,1,,,0,,
"MOBIITI:StopPlace:44622",,"Le Dehes",,45.33625,-1.053514,,,1,,,0,,
"MOBIITI:StopPlace:43530",,"Stade",,45.035576,-0.498891,,,1,,,0,,
"MOBIITI:StopPlace:43772",,"Quantin",,44.913277,-0.403974,,,1,,,0,,
"MOBIITI:StopPlace:43533",,"La Poste",,45.102463,-0.643748,,,1,,,0,,
"MOBIITI:StopPlace:43775",,"Six Chemins",,44.9003,-0.375686,,,1,,,0,,
"MOBIITI:StopPlace:44620",,"Bourg",,45.289333,-0.865774,,,1,,,0,,
"MOBIITI:StopPlace:43532",,"Eglise",,45.029903,-0.486147,,,1,,,0,,
"MOBIITI:StopPlace:43774",,"Tasta",,44.905716,-0.371658,,,1,,,0,,
"MOBIITI:StopPlace:43667",,"Cornillas",,45.219032,-0.570334,,,1,,,0,,
"MOBIITI:StopPlace:43425",,"Les Agrieres",,44.985874,-0.270152,,,1,,,0,,
"MOBIITI:StopPlace:44515",,"Bourg",,45.254303,-1.023728,,,1,,,0,,
"MOBIITI:StopPlace:44757",,"Saussac",,45.132816,-0.815217,,,1,,,0,,
"MOBIITI:StopPlace:43424",,"Bourg",,45.016663,-0.380247,,,1,,,0,,
"MOBIITI:StopPlace:44516",,"Lizan 1",,45.260105,-1.080259,,,1,,,0,,
"MOBIITI:StopPlace:44758",,"Bourg",,45.151356,-0.822355,,,1,,,0,,
"MOBIITI:StopPlace:43666",,"Bourg",,45.173866,-0.628831,,,1,,,0,,
"MOBIITI:StopPlace:43427",,"Beaumont",,44.985992,-0.259023,,,1,,,0,,
"MOBIITI:StopPlace:44755",,"Pelin",,45.03805,-0.739702,,,1,,,0,,
"MOBIITI:StopPlace:43669",,"Pl. Maronniers",,45.292007,-0.608054,,,1,,,0,,
"MOBIITI:StopPlace:44513",,"St Isidore",,45.269814,-1.103239,,,1,,,0,,
"MOBIITI:StopPlace:43668",,"La Clairiere",,45.184563,-0.605227,,,1,,,0,,
"MOBIITI:StopPlace:43426",,"Moustron",,44.975536,-0.257826,,,1,,,0,,
"MOBIITI:StopPlace:44514",,"Gloyac",,45.27164,-1.064414,,,1,,,0,,
"MOBIITI:StopPlace:44756",,"Romefort",,45.026466,-0.770025,,,1,,,0,,
"MOBIITI:StopPlace:43429",,"Marze",,44.97228,-0.268565,,,1,,,0,,
"MOBIITI:StopPlace:44519",,"Fourthon",,45.172604,-0.840305,,,1,,,0,,
"MOBIITI:StopPlace:43428",,"Bizot",,44.98839,-0.268657,,,1,,,0,,
"MOBIITI:StopPlace:44759",,"Hameau des Pins",,45.143158,-0.820089,,,1,,,0,,
"MOBIITI:StopPlace:44517",,"Villeneuve",,45.164436,-0.851507,,,1,,,0,,
"MOBIITI:StopPlace:44518",,"Senajou",,45.114666,-0.85702,,,1,,,0,,
"MOBIITI:StopPlace:44750",,"La Bergerie",,45.159763,-0.796456,,,1,,,0,,
"MOBIITI:StopPlace:43661",,"La Croix Pallard",,45.205822,-0.613308,,,1,,,0,,
"MOBIITI:StopPlace:43660",,"Guillonnet",,45.202297,-0.613541,,,1,,,0,,
"MOBIITI:StopPlace:43663",,"Bel Air",,45.209717,-0.624684,,,1,,,0,,
"MOBIITI:StopPlace:44511",,"Rte de Groussac",,45.276688,-1.039714,,,1,,,0,,
"MOBIITI:StopPlace:44753",,"Pomaredes",,45.12403,-0.780568,,,1,,,0,,
"MOBIITI:StopPlace:43662",,"Les Brunets",,45.209473,-0.618877,,,1,,,0,,
"MOBIITI:StopPlace:43420","","Maison Neuve","",45.038406,-0.367531,,,1,,,0,,
"MOBIITI:StopPlace:44754",,"Rue des Mimosas",,45.03716,-0.758226,,,1,,,0,,
"MOBIITI:StopPlace:44512",,"Carr. de Groussac",,45.284225,-1.043586,,,1,,,0,,
"MOBIITI:StopPlace:44751",,"Rue C. Chein",,45.15083,-0.827773,,,1,,,0,,
"MOBIITI:StopPlace:43665",,"La Belle Bergere",,45.179688,-0.607735,,,1,,,0,,
"MOBIITI:StopPlace:43664",,"La Roque",,45.197685,-0.613458,,,1,,,0,,
"MOBIITI:StopPlace:43422","","Les Nauves","",45.043964,-0.354846,,,1,,,0,,
"MOBIITI:StopPlace:44510",,"Moulin de Rigaud",,45.257996,-1.030612,,,1,,,0,,
"MOBIITI:StopPlace:44752",,"La Grave",,45.129818,-0.858171,,,1,,,0,,
"MOBIITI:StopPlace:43678",,"Champ des Chailles",,45.26358,-0.573864,,,1,,,0,,
"MOBIITI:StopPlace:43436",,"Caillon",,45.008347,-0.290016,,,1,,,0,,
"MOBIITI:StopPlace:44768",,"Lescapon",,45.349815,-0.988169,,,1,,,0,,
"MOBIITI:StopPlace:44526",,"Mourlan",,45.145462,-0.882961,,,1,,,0,,
"MOBIITI:StopPlace:45857","","Jardin Botanique","",44.843044,-0.556375,,,1,,,0,,
"MOBIITI:StopPlace:43677",,"Coll. J. Monnet",,45.293507,-0.612842,,,1,,,0,,
"MOBIITI:StopPlace:43435",,"Bourricaud",,44.996994,-0.260702,,,1,,,0,,
"MOBIITI:StopPlace:44769",,"Le Trale",,45.28241,-0.803548,,,1,,,0,,
"MOBIITI:StopPlace:44527",,"Marcillan 2",,45.161995,-0.840016,,,1,,,0,,
"MOBIITI:StopPlace:43438",,"Bourg",,44.958084,-0.342357,,,1,,,0,,
"MOBIITI:StopPlace:44524",,"Marcillan 1",,45.161247,-0.839767,,,1,,,0,,
"MOBIITI:StopPlace:44766",,"Le Petit Bourdieu",,45.0773,-0.78956,,,1,,,0,,
"MOBIITI:StopPlace:46703","","La Prairie","",44.86728,-0.497501,,,1,,,0,,
"MOBIITI:StopPlace:43679",,"Mais. Associations",,45.26763,-0.561692,,,1,,,0,,
"MOBIITI:StopPlace:43437",,"Joffret",,44.98678,-0.263054,,,1,,,0,,
"MOBIITI:StopPlace:44767",,"Route Pey Martin 39",,45.099045,-0.787145,,,1,,,0,,
"MOBIITI:StopPlace:44525",,"Le Ferron",,45.165447,-0.869955,,,1,,,0,,
"MOBIITI:StopPlace:43439",,"Carrefour D246",,44.966488,-0.382915,,,1,,,0,,
"MOBIITI:StopPlace:44528",,"Picard",,45.12771,-0.861139,,,1,,,0,,
"MOBIITI:StopPlace:44529",,"Semignan",,45.16971,-0.893403,,,1,,,0,,
"MOBIITI:StopPlace:43670",,"Mairie",,45.22448,-0.573077,,,1,,,0,,
"MOBIITI:StopPlace:44760",,"Barreau",,45.044765,-0.772249,,,1,,,0,,
"MOBIITI:StopPlace:44761",,"Le Pont",,45.04191,-0.767569,,,1,,,0,,
"MOBIITI:StopPlace:43672",,"Bourg",,45.28414,-0.561175,,,1,,,0,,
"MOBIITI:StopPlace:43430",,"La Bessede",,44.98098,-0.271648,,,1,,,0,,
"MOBIITI:StopPlace:43671",,"Les Penauds",,45.29029,-0.575817,,,1,,,0,,
"MOBIITI:StopPlace:43432",,"Bourg",,44.950974,-0.333784,,,1,,,0,,
"MOBIITI:StopPlace:44764",,"Pl. de Donissan",,45.09857,-0.782101,,,1,,,0,,
"MOBIITI:StopPlace:44522",,"Le Drap",,45.12692,-0.823336,,,1,,,0,,
"MOBIITI:StopPlace:43674",,"Les Ferres 3",,45.279568,-0.612309,,,1,,,0,,
"MOBIITI:StopPlace:43431",,"Roque de Bas",,44.94668,-0.326488,,,1,,,0,,
"MOBIITI:StopPlace:44765",,"Semeillan",,45.06349,-0.802995,,,1,,,0,,
"MOBIITI:StopPlace:44523",,"Larousse",,45.172874,-0.867392,,,1,,,0,,
"MOBIITI:StopPlace:43673",,"Colinet",,45.136677,-0.656349,,,1,,,0,,
"MOBIITI:StopPlace:43676",,"Eglise",,45.29151,-0.611191,,,1,,,0,,
"MOBIITI:StopPlace:43434",,"Daudinet",,45.005123,-0.284018,,,1,,,0,,
"MOBIITI:StopPlace:44762",,"Chem. de Meyre",,45.030277,-0.766196,,,1,,,0,,
"MOBIITI:StopPlace:44520",,"Ecoles",,45.145477,-0.826694,,,1,,,0,,
"MOBIITI:StopPlace:43433",,"Le Carrefour",,44.997868,-0.276789,,,1,,,0,,
"MOBIITI:StopPlace:44521",,"Lamongeau",,45.150352,-0.851959,,,1,,,0,,
"MOBIITI:StopPlace:44763",,"Cave Cooperative",,45.073303,-0.792572,,,1,,,0,,
"MOBIITI:StopPlace:43675",,"Cite Pagnolet",,45.280285,-0.608994,,,1,,,0,,
"MOBIITI:StopPlace:43689",,"La Cabane",,45.242966,-0.54223,,,1,,,0,,
"MOBIITI:StopPlace:43447",,"Mairie",,44.95875,-0.277681,,,1,,,0,,
"MOBIITI:StopPlace:44537",,"Coll. Porte du Medoc",,44.947113,-0.598886,,,1,,,0,,
"MOBIITI:StopPlace:44779",,"Le Port",,45.266014,-0.762824,,,1,,,0,,
"MOBIITI:StopPlace:45868","","Lycée Victor Louis","",44.803055,-0.592568,,,1,,,0,,
"MOBIITI:StopPlace:43688",,"Bourg",,45.234276,-0.507916,,,1,,,0,,
"MOBIITI:StopPlace:43446",,"Ecole primaire",,44.96452,-0.401324,,,1,,,0,,
"MOBIITI:StopPlace:44538","","Gare TER","",44.975594,-0.611292,,,1,,,0,,
"MOBIITI:StopPlace:45869",,"Lycée des Graves",,44.760918,-0.622102,,,1,,,0,,
"MOBIITI:StopPlace:43449",,"Pac de Sol",,45.016052,-0.343428,,,1,,,0,,
"MOBIITI:StopPlace:44535",,"Bern 2",,45.006443,-0.630661,,,1,,,0,,
"MOBIITI:StopPlace:44777",,"Le Paluda",,45.260567,-0.794647,,,1,,,0,,
"MOBIITI:StopPlace:43448",,"Gros Jean",,44.948807,-0.298128,,,1,,,0,,
"MOBIITI:StopPlace:44536",,"Zone Artisanale",,45.000896,-0.622228,,,1,,,0,,
"MOBIITI:StopPlace:44778",,"Hameau Gd Chene",,45.249226,-0.803425,,,1,,,0,,
"MOBIITI:StopPlace:44539",,"Rue de la Gare",,44.97557,-0.610851,,,1,,,0,,
"MOBIITI:StopPlace:43681",,"Bourg",,45.24855,-0.445182,,,1,,,0,,
"MOBIITI:StopPlace:44771",,"Cadourne",,45.303303,-0.787974,,,1,,,0,,
"MOBIITI:StopPlace:43680",,"La Comteau",,45.203293,-0.582931,,,1,,,0,,
"MOBIITI:StopPlace:44772",,"Bourg",,45.2648,-0.771782,,,1,,,0,,
"MOBIITI:StopPlace:44530",,"Rionet",,45.15358,-0.844052,,,1,,,0,,
"MOBIITI:StopPlace:43683",,"Les Hauts Ponts",,45.270935,-0.544156,,,1,,,0,,
"MOBIITI:StopPlace:43441",,"Girard",,44.982037,-0.252411,,,1,,,0,,
"MOBIITI:StopPlace:43682",,"Le Calvaire",,45.24569,-0.447221,,,1,,,0,,
"MOBIITI:StopPlace:43440",,"Mairie",,44.96669,-0.376096,,,1,,,0,,
"MOBIITI:StopPlace:44770",,"Les Ecoles",,45.28921,-0.790887,,,1,,,0,,
"MOBIITI:StopPlace:43685",,"Bourg",,45.268772,-0.525455,,,1,,,0,,
"MOBIITI:StopPlace:43443",,"La Barde",,44.993275,-0.252809,,,1,,,0,,
"MOBIITI:StopPlace:44775",,"Marbuzet",,45.240185,-0.770661,,,1,,,0,,
"MOBIITI:StopPlace:44533",,"Bernos",,45.123047,-0.838808,,,1,,,0,,
"MOBIITI:StopPlace:43684",,"Le Grand Village",,45.259903,-0.526485,,,1,,,0,,
"MOBIITI:StopPlace:43442",,"L'Ilotte",,44.992336,-0.266763,,,1,,,0,,
"MOBIITI:StopPlace:44534",,"Cantelaude",,45.003876,-0.640683,,,1,,,0,,
"MOBIITI:StopPlace:44776",,"Lavilotte",,45.25174,-0.80631,,,1,,,0,,
"MOBIITI:StopPlace:43687",,"Peage",,45.25584,-0.549029,,,1,,,0,,
"MOBIITI:StopPlace:43445",,"Cité Fontenelle",,44.96333,-0.406626,,,1,,,0,,
"MOBIITI:StopPlace:44773",,"Rte de Brame Hame",,45.246967,-0.791491,,,1,,,0,,
"MOBIITI:StopPlace:44531",,"Benon",,45.11538,-0.845987,,,1,,,0,,
"MOBIITI:StopPlace:43686",,"Vignolles",,45.26277,-0.541291,,,1,,,0,,
"MOBIITI:StopPlace:43444",,"Mayes",,44.96881,-0.37092,,,1,,,0,,
"MOBIITI:StopPlace:44774",,"Aillan",,45.258907,-0.802017,,,1,,,0,,
"MOBIITI:StopPlace:44532",,"Cartujac",,45.137016,-0.841438,,,1,,,0,,
"MOBIITI:StopPlace:43458",,"Antioche",,45.036156,-0.335186,,,1,,,0,,
"MOBIITI:StopPlace:44548",,"Chem. de Morian",,44.9592,-0.652465,,,1,,,0,,
"MOBIITI:StopPlace:43699",,"Chez Mimaux",,45.33166,-0.578423,,,1,,,0,,
"MOBIITI:StopPlace:43457",,"Bourg",,44.93325,-0.308511,,,1,,,0,,
"MOBIITI:StopPlace:44549",,"Lagunegrand",,45.033318,-0.693837,,,1,,,0,,
"MOBIITI:StopPlace:44307",,"Le Bois de l'Ermitage",,44.73042,-0.64146,,,1,,,0,,
"MOBIITI:StopPlace:44546",,"Peseou",,45.02422,-0.68597,,,1,,,0,,
"MOBIITI:StopPlace:44788",,"Le Port",,45.358967,-0.821857,,,1,,,0,,
"MOBIITI:StopPlace:46967","","Landegrand","",44.96036,-0.626525,,,1,,,0,,
"MOBIITI:StopPlace:43459",,"Eglise",,45.019997,-0.322698,,,1,,,0,,
"MOBIITI:StopPlace:44547",,"J. Faure",,45.02674,-0.654636,,,1,,,0,,
"MOBIITI:StopPlace:44789",,"Bourg",,45.072197,-0.724119,,,1,,,0,,
"MOBIITI:StopPlace:44308",,"Allee du Courtillas",,44.731636,-0.654922,,,1,,,0,,
"MOBIITI:StopPlace:44309",,"Pieces de Choisy",,44.729748,-0.648575,,,1,,,0,,
"MOBIITI:StopPlace:43692",,"Les Bertrands",,45.24374,-0.526013,,,1,,,0,,
"MOBIITI:StopPlace:43450",,"Bourg",,45.024235,-0.356776,,,1,,,0,,
"MOBIITI:StopPlace:44540",,"Benqueyre",,45.021126,-0.678494,,,1,,,0,,
"MOBIITI:StopPlace:44782",,"Stade",,45.263435,-0.77417,,,1,,,0,,
"MOBIITI:StopPlace:43691",,"Les Martinettes",,45.213844,-0.552168,,,1,,,0,,
"MOBIITI:StopPlace:44541",,"Chat. Angludet",,45.02028,-0.663859,,,1,,,0,,
"MOBIITI:StopPlace:44783",,"St Corbian",,45.26782,-0.789392,,,1,,,0,,
"MOBIITI:StopPlace:43694",,"Les Mongeais",,45.31016,-0.596157,,,1,,,0,,
"MOBIITI:StopPlace:43452",,"Monsieur Dubois",,45.03446,-0.342376,,,1,,,0,,
"MOBIITI:StopPlace:44780",,"Cos",,45.230556,-0.776871,,,1,,,0,,
"MOBIITI:StopPlace:43693",,"Bourg",,45.314175,-0.591264,,,1,,,0,,
"MOBIITI:StopPlace:43451",,"La Mouleyre",,44.94898,-0.276757,,,1,,,0,,
"MOBIITI:StopPlace:44781",,"Blanquet",,45.237022,-0.786471,,,1,,,0,,
"MOBIITI:StopPlace:43696",,"Le Bouil",,45.19554,-0.642531,,,1,,,0,,
"MOBIITI:StopPlace:43454",,"Bourg",,44.992718,-0.272524,,,1,,,0,,
"MOBIITI:StopPlace:44544",,"Chem. Boulibra",,45.030178,-0.683438,,,1,,,0,,
"MOBIITI:StopPlace:44786",,"Leyssac Bourg",,45.244675,-0.788574,,,1,,,0,,
"MOBIITI:StopPlace:44302",,"Pres aux Clercs",,44.740234,-0.651277,,,1,,,0,,
"MOBIITI:StopPlace:43695",,"La Garenne",,45.314198,-0.593606,,,1,,,0,,
"MOBIITI:StopPlace:43453",,"Andreau",,45.03491,-0.353671,,,1,,,0,,
"MOBIITI:StopPlace:44545",,"Les Eycards",,45.029556,-0.699181,,,1,,,0,,
"MOBIITI:StopPlace:44787",,"Rte du Bois de Brulle",,45.081917,-0.750494,,,1,,,0,,
"MOBIITI:StopPlace:43698",,"Les Annereaux",,45.322517,-0.593219,,,1,,,0,,
"MOBIITI:StopPlace:43456",,"Ecoles",,44.93717,-0.314812,,,1,,,0,,
"MOBIITI:StopPlace:44542",,"Rue Corneillan",,45.034653,-0.689296,,,1,,,0,,
"MOBIITI:StopPlace:44784",,"Le Pez",,45.260494,-0.789298,,,1,,,0,,
"MOBIITI:StopPlace:44300",,"Clairiere aux Chevaux",,44.724632,-0.676685,,,1,,,0,,
"MOBIITI:StopPlace:43697",,"Vrillant",,45.196995,-0.646975,,,1,,,0,,
"MOBIITI:StopPlace:43455",,"L'illôt",,44.97054,-0.382805,,,1,,,0,,
"MOBIITI:StopPlace:44543",,"Rue J. Curie",,45.034733,-0.680836,,,1,,,0,,
"MOBIITI:StopPlace:44785",,"Leyssac Ecole",,45.2418,-0.78655,,,1,,,0,,
"MOBIITI:StopPlace:45874",,"Stalingrad","quai Deschamps",44.83988,-0.559438,,,1,,,0,,
"MOBIITI:StopPlace:44301",,"Av. Compostelle no227",,44.702984,-0.703886,,,1,,,0,,
"MOBIITI:StopPlace:43690",,"Verdot",,45.2087,-0.498676,,,1,,,0,,
"MOBIITI:StopPlace:45406","","Savarias","",45.023838,-0.364876,,,1,,,0,,
"MOBIITI:StopPlace:44317",,"Le Basque",,44.79044,-0.432893,,,1,,,0,,
"MOBIITI:StopPlace:44559",,"Feydieu",,44.97786,-0.635567,,,1,,,0,,
"MOBIITI:StopPlace:44318",,"La Lande",,44.783974,-0.436761,,,1,,,0,,
"MOBIITI:StopPlace:45407",,"Espl. F. Mitterrand",,44.917107,-0.240841,,,1,,,0,,
"MOBIITI:StopPlace:44557",,"Ermitage Lamourous",,44.96477,-0.6487,,,1,,,0,,
"MOBIITI:StopPlace:44799",,"Le Fournas",,45.1935,-0.801176,,,1,,,0,,
"MOBIITI:StopPlace:44315",,"Peyon",,44.674755,-0.670832,,,1,,,0,,
"MOBIITI:StopPlace:44558",,"Bertranot",,44.957783,-0.664236,,,1,,,0,,
"MOBIITI:StopPlace:45405",,"Paradis",,45.002716,-0.411451,,,1,,,0,,
"MOBIITI:StopPlace:44316",,"Douence",,44.574547,-0.631839,,,1,,,0,,
"MOBIITI:StopPlace:44319",,"La Mouline",,44.799747,-0.432221,,,1,,,0,,
"MOBIITI:StopPlace:45409",,"Collège",,45.06897,-0.375359,,,1,,,0,,
"MOBIITI:StopPlace:43461",,"Bourg",,45.01895,-0.324467,,,1,,,0,,
"MOBIITI:StopPlace:44551",,"Le Bernet",,44.95925,-0.698053,,,1,,,0,,
"MOBIITI:StopPlace:44793",,"Ecole",,45.203064,-0.835374,,,1,,,0,,
"MOBIITI:StopPlace:43460",,"Borlhe",,45.018665,-0.296964,,,1,,,0,,
"MOBIITI:StopPlace:44552",,"Calbat",,45.019047,-0.680391,,,1,,,0,,
"MOBIITI:StopPlace:44794",,"Desteau",,45.197266,-0.841507,,,1,,,0,,
"MOBIITI:StopPlace:44310",,"Cassini",,44.733257,-0.651333,,,1,,,0,,
"MOBIITI:StopPlace:43463",,"La Croix Rouge",,45.038815,-0.327494,,,1,,,0,,
"MOBIITI:StopPlace:44791",,"Guerin",,45.20282,-0.803862,,,1,,,0,,
"MOBIITI:StopPlace:43462",,"Grimard",,45.013042,-0.291978,,,1,,,0,,
"MOBIITI:StopPlace:44550",,"Matheou",,45.032898,-0.679674,,,1,,,0,,
"MOBIITI:StopPlace:44792",,"Glomeau",,45.194233,-0.843893,,,1,,,0,,
"MOBIITI:StopPlace:45402",,"Buffaud",,45.010674,-0.401566,,,1,,,0,,
"MOBIITI:StopPlace:44555",,"Petit Feydieu",,44.977253,-0.628785,,,1,,,0,,
"MOBIITI:StopPlace:44797",,"Stade",,45.198624,-0.833602,,,1,,,0,,
"MOBIITI:StopPlace:43465",,"Mendoce",,45.090546,-0.63916,,,1,,,0,,
"MOBIITI:StopPlace:44313",,"Jauge",,44.70077,-0.706062,,,1,,,0,,
"MOBIITI:StopPlace:43464",,"Bafave",,45.0466,-0.318966,,,1,,,0,,
"MOBIITI:StopPlace:44556",,"Lot. Le Verger 1",,44.951096,-0.646815,,,1,,,0,,
"MOBIITI:StopPlace:44798",,"Lescargean",,45.20815,-0.81616,,,1,,,0,,
"MOBIITI:StopPlace:44314",,"Le Puch",,44.68374,-0.722464,,,1,,,0,,
"MOBIITI:StopPlace:45400",,"Puy Faure",,45.020065,-0.393671,,,1,,,0,,
"MOBIITI:StopPlace:44553",,"Chem. Rouges Gorges",,44.95209,-0.653806,,,1,,,0,,
"MOBIITI:StopPlace:44795",,"La Naude",,45.19415,-0.795737,,,1,,,0,,
"MOBIITI:StopPlace:43467",,"Bourg",,44.954456,-0.468194,,,1,,,0,,
"MOBIITI:StopPlace:45642","","République","",44.834667,-0.579688,,,1,,,0,,
"MOBIITI:StopPlace:44311",,"Val de l'Arriga",,44.740395,-0.653438,,,1,,,0,,
"MOBIITI:StopPlace:45401",,"Cave Cooperative",,45.015236,-0.394418,,,1,,,0,,
"MOBIITI:StopPlace:44554",,"Lot. Le Verger 2",,44.95013,-0.643962,,,1,,,0,,
"MOBIITI:StopPlace:44796",,"Junca",,45.20981,-0.812724,,,1,,,0,,
"MOBIITI:StopPlace:43466",,"Roque de Thau",,45.080254,-0.636176,,,1,,,0,,
"MOBIITI:StopPlace:44312",,"Rejouit",,44.738747,-0.65589,,,1,,,0,,
"MOBIITI:StopPlace:46973",,"Peybois",,44.93996,-0.632813,,,1,,,0,,
"MOBIITI:StopPlace:44790",,"Eglise",,45.04111,-0.937354,,,1,,,0,,
"MOBIITI:StopPlace:44328",,"Dom. la Vernaie",,44.762615,-0.466765,,,1,,,0,,
"MOBIITI:StopPlace:43479",,"Croix de l'Avocat",,45.01203,-0.448987,,,1,,,0,,
"MOBIITI:StopPlace:44329",,"Baragne 2",,44.747383,-0.456518,,,1,,,0,,
"MOBIITI:StopPlace:44326",,"Montichamp",,44.769554,-0.47775,,,1,,,0,,
"MOBIITI:StopPlace:44568",,"Allee Montesquieu 2",,44.958546,-0.658991,,,1,,,0,,
"MOBIITI:StopPlace:44327",,"Paguemaou",,44.772625,-0.471807,,,1,,,0,,
"MOBIITI:StopPlace:44569",,"Ligondras",,45.009827,-0.683892,,,1,,,0,,
"MOBIITI:StopPlace:44320",,"Lotte",,44.764557,-0.478041,,,1,,,0,,
"MOBIITI:StopPlace:44562",,"Pl. St Michel",,45.039818,-0.676297,,,1,,,0,,
"MOBIITI:StopPlace:43472",,"Talbot",,45.051758,-0.592344,,,1,,,0,,
"MOBIITI:StopPlace:45410",,"Bourg",,45.05742,-0.335598,,,1,,,0,,
"MOBIITI:StopPlace:44321",,"Chem. de Mugron",,44.760265,-0.456674,,,1,,,0,,
"MOBIITI:StopPlace:44563",,"Eglise",,44.967045,-0.645246,,,1,,,0,,
"MOBIITI:StopPlace:43471",,"La Croix de Millorit",,45.055943,-0.599882,,,1,,,0,,
"MOBIITI:StopPlace:44560",,"J.J. Rousseau",,44.955112,-0.659297,,,1,,,0,,
"MOBIITI:StopPlace:43474",,"Le Telegraphe",,45.081406,-0.579447,,,1,,,0,,
"MOBIITI:StopPlace:46981","","Montesquieu","",44.907627,-0.639218,,,1,,,0,,
"MOBIITI:StopPlace:44561",,"Salle Fetes",,45.03925,-0.681787,,,1,,,0,,
"MOBIITI:StopPlace:43473",,"La Reuille",,45.053577,-0.603794,,,1,,,0,,
"MOBIITI:StopPlace:43476",,"Cablanc",,45.026627,-0.465305,,,1,,,0,,
"MOBIITI:StopPlace:44324",,"Paris",,44.75886,-0.418404,,,1,,,0,,
"MOBIITI:StopPlace:44566",,"Chopinot",,44.964592,-0.67689,,,1,,,0,,
"MOBIITI:StopPlace:44325",,"Cimetiere",,44.764618,-0.482322,,,1,,,0,,
"MOBIITI:StopPlace:44567",,"Allee Montesquieu 1",,44.960472,-0.654214,,,1,,,0,,
"MOBIITI:StopPlace:43475",,"Baillou",,45.09407,-0.581797,,,1,,,0,,
"MOBIITI:StopPlace:43478",,"Bourg",,45.01833,-0.463158,,,1,,,0,,
"MOBIITI:StopPlace:44322",,"Coll. C. Claudel",,44.786446,-0.493518,,,1,,,0,,
"MOBIITI:StopPlace:44564",,"PN",,45.038296,-0.694463,,,1,,,0,,
"MOBIITI:StopPlace:45411",,"Coll. Pian Médoc",,44.93839,-0.702374,,,1,,,0,,
"MOBIITI:StopPlace:43477",,"Voisi",,45.014324,-0.469298,,,1,,,0,,
"MOBIITI:StopPlace:44323",,"Gros Chenes",,44.795868,-0.483018,,,1,,,0,,
"MOBIITI:StopPlace:44565",,"Bellegrave",,44.948395,-0.641461,,,1,,,0,,
"MOBIITI:StopPlace:44339",,"Chat. de Gourgues",,44.745262,-0.437937,,,1,,,0,,
"MOBIITI:StopPlace:44337",,"Le Caillou",,44.74812,-0.411583,,,1,,,0,,
"MOBIITI:StopPlace:44579",,"Queyzans",,45.334793,-0.816531,,,1,,,0,,
"MOBIITI:StopPlace:44338",,"Guillon",,44.75264,-0.415455,,,1,,,0,,
"MOBIITI:StopPlace:44331",,"Le Carpe 2",,44.763657,-0.405341,,,1,,,0,,
"MOBIITI:StopPlace:44573",,"Planque St Blaise",,45.037563,-0.696912,,,1,,,0,,
"MOBIITI:StopPlace:43483",,"Bel Air",,44.97245,-0.443149,,,1,,,0,,
"MOBIITI:StopPlace:44332",,"Chem. Muriel et Alain",,44.758278,-0.481337,,,1,,,0,,
"MOBIITI:StopPlace:44574",,"Tayac",,45.05889,-0.716261,,,1,,,0,,
"MOBIITI:StopPlace:43482",,"Bourg",,44.972153,-0.452984,,,1,,,0,,
"MOBIITI:StopPlace:44571",,"Le Fief",,45.03464,-0.699174,,,1,,,0,,
"MOBIITI:StopPlace:43485",,"Chem. Peyrot",,45.00859,-0.473785,,,1,,,0,,
"MOBIITI:StopPlace:44330",,"Les Jardins de Thomas",,44.745224,-0.456415,,,1,,,0,,
"MOBIITI:StopPlace:43484",,"Allee de Verdun",,44.989826,-0.449631,,,1,,,0,,
"MOBIITI:StopPlace:44335",,"Val Rose",,44.791634,-0.516223,,,1,,,0,,
"MOBIITI:StopPlace:44577",,"Bessan",,45.04983,-0.699244,,,1,,,0,,
"MOBIITI:StopPlace:43487",,"Chem. de la Grave",,44.979294,-0.411537,,,1,,,0,,
"MOBIITI:StopPlace:44336",,"Arcins",,44.79807,-0.516842,,,1,,,0,,
"MOBIITI:StopPlace:44578",,"Chat. Loudenne",,45.319782,-0.793562,,,1,,,0,,
"MOBIITI:StopPlace:43486",,"Les Planquettes",,44.97216,-0.412519,,,1,,,0,,
"MOBIITI:StopPlace:44333",,"Les Grands Horizons",,44.75609,-0.476702,,,1,,,0,,
"MOBIITI:StopPlace:44575",,"Virefougasse",,45.03722,-0.700588,,,1,,,0,,
"MOBIITI:StopPlace:43489",,"Halte Nautique",,45.011936,-0.527514,,,1,,,0,,
"MOBIITI:StopPlace:44334",,"Rue Rouches",,44.76648,-0.449774,,,1,,,0,,
"MOBIITI:StopPlace:44576",,"Le Pez",,45.045185,-0.704692,,,1,,,0,,
"MOBIITI:StopPlace:44570",,"Rte d'Arsac 2",,44.971165,-0.721857,,,1,,,0,,
"MOBIITI:StopPlace:43481",,"Rte de Bourg",,45.012978,-0.468588,,,1,,,0,,
"MOBIITI:StopPlace:43480",,"La Cote du Tertre",,45.01628,-0.464883,,,1,,,0,,
"MOBIITI:StopPlace:44108",,"Guilhem Arnaud",,44.7662,-0.215167,,,1,,,0,,
"MOBIITI:StopPlace:44109",,"Gardes",,44.77183,-0.239195,,,1,,,0,,
"MOBIITI:StopPlace:44106",,"Les Carrieres",,44.79204,-0.500984,,,1,,,0,,
"MOBIITI:StopPlace:44348",,"Chabrot",,44.788174,-0.445636,,,1,,,0,,
"MOBIITI:StopPlace:44107",,"La Seleyre",,44.80248,-0.50338,,,1,,,0,,
"MOBIITI:StopPlace:44349",,"Av. de Bordeaux",,44.77803,-0.461932,,,1,,,0,,
"MOBIITI:StopPlace:44100",,"Clos d'Alban",,44.77389,-0.416531,,,1,,,0,,
"MOBIITI:StopPlace:44342",,"Fontainebleau",,44.744938,-0.41656,,,1,,,0,,
"MOBIITI:StopPlace:44584",,"By",,45.375145,-0.865178,,,1,,,0,,
"MOBIITI:StopPlace:43494",,"Port Neuf",,45.005657,-0.480273,,,1,,,0,,
"MOBIITI:StopPlace:44101",,"La Borde",,44.78191,-0.392538,,,1,,,0,,
"MOBIITI:StopPlace:44343",,"Les Meneaux",,44.750774,-0.408803,,,1,,,0,,
"MOBIITI:StopPlace:44585",,"Canissac",,45.36551,-0.911077,,,1,,,0,,
"MOBIITI:StopPlace:43493",,"Chem. de Grave",,44.975666,-0.420677,,,1,,,0,,
"MOBIITI:StopPlace:44340",,"Rue A. Renoir",,44.74651,-0.42739,,,1,,,0,,
"MOBIITI:StopPlace:44582",,"Bourg",,45.357246,-0.894068,,,1,,,0,,
"MOBIITI:StopPlace:43496",,"La Cabeyre",,44.99329,-0.436556,,,1,,,0,,
"MOBIITI:StopPlace:44341",,"Censot",,44.760384,-0.416745,,,1,,,0,,
"MOBIITI:StopPlace:44583",,"Port de By",,45.37572,-0.845516,,,1,,,0,,
"MOBIITI:StopPlace:43495",,"Calonge",,44.9819,-0.431959,,,1,,,0,,
"MOBIITI:StopPlace:44104",,"Bourg",,44.76011,-0.196249,,,1,,,0,,
"MOBIITI:StopPlace:44346",,"Versailles",,44.75756,-0.420904,,,1,,,0,,
"MOBIITI:StopPlace:44588",,"Rte de la Hargue",,45.37448,-0.932339,,,1,,,0,,
"MOBIITI:StopPlace:43498",,"Peyrelebade",,45.000126,-0.464174,,,1,,,0,,
"MOBIITI:StopPlace:44105",,"Salin 2",,44.76022,-0.313859,,,1,,,0,,
"MOBIITI:StopPlace:44347",,"Mons",,44.789726,-0.453819,,,1,,,0,,
"MOBIITI:StopPlace:44589",,"Bourg",,45.321968,-0.820543,,,1,,,0,,
"MOBIITI:StopPlace:43497",,"Rte Port Neuf",,45.005817,-0.480008,,,1,,,0,,
"MOBIITI:StopPlace:44102",,"Gachet",,44.77636,-0.412729,,,1,,,0,,
"MOBIITI:StopPlace:44344",,"Cran",,44.751217,-0.429505,,,1,,,0,,
"MOBIITI:StopPlace:44586",,"Begadanet",,45.36731,-0.886806,,,1,,,0,,
"MOBIITI:StopPlace:44103",,"Grangeneuve/C. Coop.",,44.756107,-0.206766,,,1,,,0,,
"MOBIITI:StopPlace:44345",,"Les Meneaux Bourg",,44.752174,-0.40995,,,1,,,0,,
"MOBIITI:StopPlace:44587",,"La Sableyre",,45.36456,-0.906503,,,1,,,0,,
"MOBIITI:StopPlace:43499",,"Rte de Plagne",,44.9914,-0.464902,,,1,,,0,,
"MOBIITI:StopPlace:44580",,"Les Bernedes",,45.3527,-0.872663,,,1,,,0,,
"MOBIITI:StopPlace:44581",,"Les Cabans",,45.364338,-0.900823,,,1,,,0,,
"MOBIITI:StopPlace:43492",,"Bourg",,45.034477,-0.47036,,,1,,,0,,
"MOBIITI:StopPlace:43491",,"Bourg",,45.015507,-0.533111,,,1,,,0,,
"MOBIITI:StopPlace:44119",,"Biac",,44.702347,-0.392925,,,1,,,0,,
"MOBIITI:StopPlace:44359",,"St Ourens",,44.707172,-0.362385,,,1,,,0,,
"MOBIITI:StopPlace:44117",,"Bertric",,44.58979,-0.253994,,,1,,,0,,
"MOBIITI:StopPlace:44118",,"Les Camards",,44.59345,-0.250176,,,1,,,0,,
"MOBIITI:StopPlace:44111",,"La Laiterie",,44.77438,-0.24356,,,1,,,0,,
"MOBIITI:StopPlace:44353",,"Pommarede 2",,44.707928,-0.39026,,,1,,,0,,
"MOBIITI:StopPlace:44595",,"Laujac",,45.364754,-0.935512,,,1,,,0,,
"MOBIITI:StopPlace:44112",,"Le Ruth",,44.75556,-0.228522,,,1,,,0,,
"MOBIITI:StopPlace:44354",,"Pommarede 1",,44.70952,-0.39279,,,1,,,0,,
"MOBIITI:StopPlace:44596",,"Freres Lumiere",,45.4874,-1.120745,,,1,,,0,,
"MOBIITI:StopPlace:44351",,"Stade",,44.692154,-0.333129,,,1,,,0,,
"MOBIITI:StopPlace:44593",,"Courbian",,45.37609,-0.935463,,,1,,,0,,
"MOBIITI:StopPlace:44110",,"Bourg",,44.77124,-0.227661,,,1,,,0,,
"MOBIITI:StopPlace:44352",,"Deyma",,44.69203,-0.327993,,,1,,,0,,
"MOBIITI:StopPlace:44594",,"La Lagune",,45.382706,-0.854625,,,1,,,0,,
"MOBIITI:StopPlace:44357",,"Eglise Haut Langoiran",,44.70408,-0.378392,,,1,,,0,,
"MOBIITI:StopPlace:44115",,"Centre",,44.644,-0.322959,,,1,,,0,,
"MOBIITI:StopPlace:44599",,"Rue de la Becade",,45.173775,-1.0537,,,1,,,0,,
"MOBIITI:StopPlace:44358",,"Ste Catherine",,44.703987,-0.371205,,,1,,,0,,
"MOBIITI:StopPlace:44113",,"Lestrille",,44.81777,-0.254847,,,1,,,0,,
"MOBIITI:StopPlace:44355",,"Chat. Gourran",,44.70863,-0.355077,,,1,,,0,,
"MOBIITI:StopPlace:44597",,"Camblanc",,45.320217,-0.864452,,,1,,,0,,
"MOBIITI:StopPlace:44356",,"Peybotte",,44.710587,-0.349262,,,1,,,0,,
"MOBIITI:StopPlace:44114",,"La Chapelle",,44.647896,-0.327489,,,1,,,0,,
"MOBIITI:StopPlace:44598",,"Caussan",,45.32217,-0.877608,,,1,,,0,,
"MOBIITI:StopPlace:44591",,"Biars",,45.35199,-0.895083,,,1,,,0,,
"MOBIITI:StopPlace:44350",,"Le Bertaut",,44.7042,-0.369288,,,1,,,0,,
"MOBIITI:StopPlace:44592",,"Condissas",,45.375412,-0.87877,,,1,,,0,,
"MOBIITI:StopPlace:44590",,"Peris",,45.260395,-0.870191,,,1,,,0,,
"MOBIITI:StopPlace:46309",,"Kennedy",,44.867477,-0.507314,,,1,,,0,,
"MOBIITI:StopPlace:44128",,"Fond d'Arlan",,44.681293,-0.362995,,,1,,,0,,
"MOBIITI:StopPlace:44129",,"Le Gardera",,44.70038,-0.389485,,,1,,,0,,
"MOBIITI:StopPlace:44364",,"Coll. A. France",,44.630257,-0.30576,,,1,,,0,,
"MOBIITI:StopPlace:44122",,"Chat. d'Eau",,44.691536,-0.335345,,,1,,,0,,
"MOBIITI:StopPlace:44365",,"Le Boudeur",,44.65391,-0.301719,,,1,,,0,,
"MOBIITI:StopPlace:46784",,"Pont de Bouliac",,44.82111,-0.513348,,,1,,,0,,
"MOBIITI:StopPlace:44123",,"Peynon",,44.60701,-0.242893,,,1,,,0,,
"MOBIITI:StopPlace:44362",,"Le Vic",,44.67708,-0.323986,,,1,,,0,,
"MOBIITI:StopPlace:44363",,"Coll. J.J. Lataste",,44.63837,-0.314423,,,1,,,0,,
"MOBIITI:StopPlace:44121",,"Ets Scolaires",,44.54761,-0.251756,,,1,,,0,,
"MOBIITI:StopPlace:44126",,"Le Pied du Chateau",,44.69867,-0.384297,,,1,,,0,,
"MOBIITI:StopPlace:44368",,"Ancien Moulin",,44.67211,-0.27125,,,1,,,0,,
"MOBIITI:StopPlace:44127",,"Centre",,44.685604,-0.365016,,,1,,,0,,
"MOBIITI:StopPlace:44369",,"Bourg",,44.67812,-0.246343,,,1,,,0,,
"MOBIITI:StopPlace:44124",,"Le Bridat",,44.722626,-0.428568,,,1,,,0,,
"MOBIITI:StopPlace:44366",,"Freylon",,44.6969,-0.23709,,,1,,,0,,
"MOBIITI:StopPlace:44367",,"Tienbon",,44.710396,-0.318249,,,1,,,0,,
"MOBIITI:StopPlace:44125",,"Bourg",,44.71024,-0.403427,,,1,,,0,,
"MOBIITI:StopPlace:44360",,"Ricouet",,44.676453,-0.339356,,,1,,,0,,
"MOBIITI:StopPlace:44361",,"Bibey",,44.685543,-0.320264,,,1,,,0,,
"MOBIITI:StopPlace:44139",,"Lampon",,44.69082,-0.371778,,,1,,,0,,
"MOBIITI:StopPlace:44375",,"La Pradiasse Calvaire",,44.660294,-0.315138,,,1,,,0,,
"MOBIITI:StopPlace:44133",,"Beausejour",,44.656754,-0.339571,,,1,,,0,,
"MOBIITI:StopPlace:44376",,"Bourg",,44.659073,-0.302269,,,1,,,0,,
"MOBIITI:StopPlace:44134",,"Bourg",,44.66548,-0.348962,,,1,,,0,,
"MOBIITI:StopPlace:44373",,"Bourg",,44.700775,-0.244056,,,1,,,0,,
"MOBIITI:StopPlace:44131",,"Les Dagoisses",,44.661266,-0.343876,,,1,,,0,,
"MOBIITI:StopPlace:44374",,"Basse Roque",,44.655518,-0.304581,,,1,,,0,,
"MOBIITI:StopPlace:44132",,"St Seurin",,44.668373,-0.351073,,,1,,,0,,
"MOBIITI:StopPlace:44137",,"Chat. Lagarere",,44.69604,-0.379434,,,1,,,0,,
"MOBIITI:StopPlace:44379",,"Bourg",,44.68644,-0.26519,,,1,,,0,,
"MOBIITI:StopPlace:46316","","Quai Deschamps","",44.839184,-0.559366,,,1,,,0,,
"MOBIITI:StopPlace:44138",,"Centre",,44.692722,-0.374419,,,1,,,0,,
"MOBIITI:StopPlace:46315","","Place des 2 Villes","",44.864338,-0.519391,,,1,,,0,,
"MOBIITI:StopPlace:44377",,"Chat. d'Eau",,44.726738,-0.401956,,,1,,,0,,
"MOBIITI:StopPlace:44135",,"Chat. Carsin",,44.66338,-0.322226,,,1,,,0,,
"MOBIITI:StopPlace:44378",,"La Lande",,44.737354,-0.413428,,,1,,,0,,
"MOBIITI:StopPlace:44136",,"Bouit",,44.67228,-0.344554,,,1,,,0,,
"MOBIITI:StopPlace:44371",,"Le Hourc",,44.704567,-0.248887,,,1,,,0,,
"MOBIITI:StopPlace:44130",,"Centre",,44.7067,-0.400291,,,1,,,0,,
"MOBIITI:StopPlace:44372",,"Troubat",,44.696896,-0.25715,,,1,,,0,,
"MOBIITI:StopPlace:44370",,"Le Rouquey",,44.70346,-0.256116,,,1,,,0,,
"MOBIITI:StopPlace:44144",,"Mairie",,44.6799,-0.321758,,,1,,,0,,
"MOBIITI:StopPlace:44386",,"Groux",,44.704636,-0.291729,,,1,,,0,,
"MOBIITI:StopPlace:44145",,"Le Rouquey",,44.717876,-0.417931,,,1,,,0,,
"MOBIITI:StopPlace:44387",,"Dorlange",,44.68957,-0.293874,,,1,,,0,,
"MOBIITI:StopPlace:44142",,"Le Flech",,44.766365,-0.494203,,,1,,,0,,
"MOBIITI:StopPlace:44384",,"Au Bourdieu",,44.697853,-0.271867,,,1,,,0,,
"MOBIITI:StopPlace:44143",,"Bourg",,44.7325,-0.465213,,,1,,,0,,
"MOBIITI:StopPlace:44385",,"Barthalot",,44.698887,-0.266663,,,1,,,0,,
"MOBIITI:StopPlace:44148",,"Pl. des Capucins",,44.637054,-0.317442,,,1,,,0,,
"MOBIITI:StopPlace:44149",,"Bourg",,44.624332,-0.301742,,,1,,,0,,
"MOBIITI:StopPlace:44388",,"Chardavoine",,44.69479,-0.275005,,,1,,,0,,
"MOBIITI:StopPlace:44146",,"Res. Lamothe",,44.63025,-0.309594,,,1,,,0,,
"MOBIITI:StopPlace:44389",,"Perron",,44.691708,-0.284424,,,1,,,0,,
"MOBIITI:StopPlace:44147",,"Pl. Lattre de Tassigny",,44.635857,-0.321007,,,1,,,0,,
"MOBIITI:StopPlace:44382",,"Les Gahets",,44.735058,-0.410672,,,1,,,0,,
"MOBIITI:StopPlace:44140",,"Damanieu",,44.687916,-0.322318,,,1,,,0,,
"MOBIITI:StopPlace:44383",,"Mairie",,44.72082,-0.40577,,,1,,,0,,
"MOBIITI:StopPlace:44141",,"Calvaire",,44.67897,-0.327648,,,1,,,0,,
"MOBIITI:StopPlace:44380",,"Cimetiere",,44.679695,-0.2699,,,1,,,0,,
"MOBIITI:StopPlace:44381",,"Landonnet",,44.690903,-0.268377,,,1,,,0,,
"MOBIITI:StopPlace:45008",,"Centre",,45.007233,-0.352727,,,1,,,0,,
"MOBIITI:StopPlace:45009",,"Tourmalin",,44.93595,-0.280198,,,1,,,0,,
"MOBIITI:StopPlace:44155",,"Bourg",,44.626415,-0.27064,,,1,,,0,,
"MOBIITI:StopPlace:44397",,"Av. du Bossut",,44.80875,-0.793977,,,1,,,0,,
"MOBIITI:StopPlace:44156",,"Escute",,44.75959,-0.496371,,,1,,,0,,
"MOBIITI:StopPlace:45003",,"Centre",,44.990723,-0.339393,,,1,,,0,,
"MOBIITI:StopPlace:46333",,"Jean Zay",,44.854244,-0.514006,,,1,,,0,,
"MOBIITI:StopPlace:44398",,"Le Las",,44.798977,-0.835993,,,1,,,0,,
"MOBIITI:StopPlace:44153",,"La Croix",,44.62754,-0.266784,,,1,,,0,,
"MOBIITI:StopPlace:44395",,"Matoque",,44.818726,-0.779021,,,1,,,0,,
"MOBIITI:StopPlace:44154",,"La Martingue Sud",,44.63146,-0.25057,,,1,,,0,,
"MOBIITI:StopPlace:44396",,"Cimetiere",,44.81386,-0.779864,,,1,,,0,,
"MOBIITI:StopPlace:44159",,"Le Joucla",,44.744106,-0.485843,,,1,,,0,,
"MOBIITI:StopPlace:44157",,"Bourg",,44.75595,-0.488447,,,1,,,0,,
"MOBIITI:StopPlace:45004",,"Les Gaussens",,44.98736,-0.332972,,,1,,,0,,
"MOBIITI:StopPlace:44399",,"Imp. des Bolets",,44.80281,-0.782652,,,1,,,0,,
"MOBIITI:StopPlace:44158",,"Bigueresse",,44.75184,-0.493526,,,1,,,0,,
"MOBIITI:StopPlace:44390",,"Graveyres",,44.694595,-0.314081,,,1,,,0,,
"MOBIITI:StopPlace:44151",,"Bourg",,44.71079,-0.330988,,,1,,,0,,
"MOBIITI:StopPlace:44393",,"Av. des Chenes",,44.811646,-0.783972,,,1,,,0,,
"MOBIITI:StopPlace:44152",,"Gaudin",,44.708935,-0.315638,,,1,,,0,,
"MOBIITI:StopPlace:44394",,"Allee de Tillon",,44.802322,-0.787472,,,1,,,0,,
"MOBIITI:StopPlace:44391",,"Bertrand",,44.707733,-0.299522,,,1,,,0,,
"MOBIITI:StopPlace:44392",,"Ecole",,44.697674,-0.283129,,,1,,,0,,
"MOBIITI:StopPlace:44150",,"Pitchat",,44.618122,-0.298072,,,1,,,0,,
"MOBIITI:StopPlace:45255",,"Bourg",,44.880043,-0.990182,,,1,,,0,,
"MOBIITI:StopPlace:44166",,"Aerocampus",,44.781925,-0.495315,,,1,,,0,,
"MOBIITI:StopPlace:44167",,"Monte Cristo",,44.825268,-0.535815,,,1,,,0,,
"MOBIITI:StopPlace:44164",,"Chem. de Coulon",,44.79847,-0.502068,,,1,,,0,,
"MOBIITI:StopPlace:44165",,"Mairie",,44.614876,-0.268464,,,1,,,0,,
"MOBIITI:StopPlace:44162",,"Chem Port de l'Homme",,44.785336,-0.503621,,,1,,,0,,
"MOBIITI:StopPlace:45252",,"Ancienne Gare",,44.87543,-1.082832,,,1,,,0,,
"MOBIITI:StopPlace:45010",,"Gaby",,44.93053,-0.278041,,,1,,,0,,
"MOBIITI:StopPlace:44163",,"La Motte",,44.617165,-0.246661,,,1,,,0,,
"MOBIITI:StopPlace:44160",,"Esconac",,44.739357,-0.480857,,,1,,,0,,
"MOBIITI:StopPlace:44161",,"Rd Pt du 5 Decembre",,44.78659,-0.498483,,,1,,,0,,
"MOBIITI:StopPlace:44177",,"Lardin",,44.59554,-0.264465,,,1,,,0,,
"MOBIITI:StopPlace:44178",,"Monplaisir",,44.570717,-0.246551,,,1,,,0,,
"MOBIITI:StopPlace:44175",,"Mounet",,44.59379,-0.275406,,,1,,,0,,
"MOBIITI:StopPlace:44176",,"Labat",,44.59551,-0.269591,,,1,,,0,,
"MOBIITI:StopPlace:44179",,"Les Noyers",,44.568394,-0.242308,,,1,,,0,,
"MOBIITI:StopPlace:44170",,"Centre",,44.829872,-0.526665,,,1,,,0,,
"MOBIITI:StopPlace:44173",,"Crabitan",,44.60391,-0.277332,,,1,,,0,,
"MOBIITI:StopPlace:46351",,"Collège G. Rayet",,44.842045,-0.515396,,,1,,,0,,
"MOBIITI:StopPlace:44174",,"Eglise",,44.593693,-0.282202,,,1,,,0,,
"MOBIITI:StopPlace:44171",,"Le Peyrat",,44.59547,-0.288592,,,1,,,0,,
"MOBIITI:StopPlace:44172",,"Larrivat",,44.60094,-0.281561,,,1,,,0,,
"MOBIITI:StopPlace:44188",,"Lamothe Le Bouscaut",,44.751827,-0.549034,,,1,,,0,,
"MOBIITI:StopPlace:44189",,"Chem. de Pate",,44.726807,-0.522163,,,1,,,0,,
"MOBIITI:StopPlace:44186",,"Chem. Baulos",,44.737957,-0.540763,,,1,,,0,,
"MOBIITI:StopPlace:44187",,"Rue de Courdouney",,44.738823,-0.530933,,,1,,,0,,
"MOBIITI:StopPlace:46368","","Floirac Dravemont","",44.845936,-0.510162,,,1,,,0,,
"MOBIITI:StopPlace:44180",,"La Lane",,44.575542,-0.255574,,,1,,,0,,
"MOBIITI:StopPlace:44181",,"Mairie",,44.578945,-0.261011,,,1,,,0,,
"MOBIITI:StopPlace:44184",,"Bel Air",,44.741795,-0.617645,,,1,,,0,,
"MOBIITI:StopPlace:44185",,"Rue Truchon 1081",,44.745537,-0.543027,,,1,,,0,,
"MOBIITI:StopPlace:44183",,"LEOGNAN - Le Livran",,44.722485,-0.588884,,,1,,,0,,
"MOBIITI:StopPlace:44078",,"Molas",,44.748447,-0.390545,,,1,,,0,,
"MOBIITI:StopPlace:44079",,"Mairie",,44.75313,-0.38254,,,1,,,0,,
"MOBIITI:StopPlace:44076",,"Chem. Le Gris",,44.826344,-0.36311,,,1,,,0,,
"MOBIITI:StopPlace:44077",,"Chem. de Buzi",,44.82162,-0.360441,,,1,,,0,,
"MOBIITI:StopPlace:44070",,"Terrefort",,44.822624,-0.322882,,,1,,,0,,
"MOBIITI:StopPlace:44071",,"Salle des Fetes",,44.820972,-0.313834,,,1,,,0,,
"MOBIITI:StopPlace:44074",,"Cassarat",,44.822903,-0.314875,,,1,,,0,,
"MOBIITI:StopPlace:44075",,"Bourg",,44.831165,-0.363507,,,1,,,0,,
"MOBIITI:StopPlace:44072",,"Petit Jean",,44.805546,-0.327065,,,1,,,0,,
"MOBIITI:StopPlace:44073",,"Theophile",,44.82982,-0.326643,,,1,,,0,,
"MOBIITI:StopPlace:44089",,"Baudin",,44.758083,-0.329331,,,1,,,0,,
"MOBIITI:StopPlace:44087",,"Coll. F. Mitterrand",,44.77226,-0.353496,,,1,,,0,,
"MOBIITI:StopPlace:44088",,"Grimard",,44.763638,-0.331941,,,1,,,0,,
"MOBIITI:StopPlace:44081",,"Le Portail",,44.759315,-0.376046,,,1,,,0,,
"MOBIITI:StopPlace:44082",,"Carensac",,44.81801,-0.268599,,,1,,,0,,
"MOBIITI:StopPlace:44080",,"Distillerie",,44.743256,-0.381694,,,1,,,0,,
"MOBIITI:StopPlace:44085",,"La Magrine",,44.822533,-0.293042,,,1,,,0,,
"MOBIITI:StopPlace:44086",,"Stade",,44.82132,-0.286121,,,1,,,0,,
"MOBIITI:StopPlace:44083",,"Nardique",,44.76448,-0.368882,,,1,,,0,,
"MOBIITI:StopPlace:44084",,"Galouchey",,44.761097,-0.372819,,,1,,,0,,
"MOBIITI:StopPlace:44098",,"Rte de Creon 117",,44.78043,-0.367589,,,1,,,0,,
"MOBIITI:StopPlace:44099",,"Platon 2",,44.768604,-0.41912,,,1,,,0,,
"MOBIITI:StopPlace:44092",,"Mairie",,44.819813,-0.345522,,,1,,,0,,
"MOBIITI:StopPlace:44093",,"Carr. Reynaud",,44.82307,-0.349535,,,1,,,0,,
"MOBIITI:StopPlace:44090",,"Mailleau",,44.751186,-0.332629,,,1,,,0,,
"MOBIITI:StopPlace:44091",,"Ecole Primaire",,44.77313,-0.350473,,,1,,,0,,
"MOBIITI:StopPlace:44096",,"Picon",,44.7132,-0.395996,,,1,,,0,,
"MOBIITI:StopPlace:44097",,"Boutin",,44.781464,-0.377663,,,1,,,0,,
"MOBIITI:StopPlace:44094",,"La Vidane",,44.812405,-0.341334,,,1,,,0,,
"MOBIITI:StopPlace:44095",,"Perdri Gail",,44.816723,-0.343699,,,1,,,0,,
"MOBIITI:StopPlace:46049",,"Anatole France",,44.8463,-0.535782,,,1,,,0,,
"MOBIITI:StopPlace:46043",,"Collège L. Lenoir",,44.840508,-0.553321,,,1,,,0,,
"MOBIITI:StopPlace:46058",,"La Tresne",,44.840782,-0.550315,,,1,,,0,,
"MOBIITI:StopPlace:47154","","Malbrède","",44.982975,-0.481645,,,1,,,0,,
"MOBIITI:StopPlace:46064","","Musée d'aquitaine","",44.834995,-0.574267,,,1,,,0,,
"MOBIITI:StopPlace:43800",,"Foyer Municipal",,44.891727,-0.502836,,,1,,,0,,
"MOBIITI:StopPlace:43803",,"Lyc. J. Monnet",,44.905666,-0.241518,,,1,,,0,,
"MOBIITI:StopPlace:43802",,"Chem. de Valentin 2",,44.872192,-0.468652,,,1,,,0,,
"MOBIITI:StopPlace:43805",,"Senau",,44.88275,-0.310778,,,1,,,0,,
"MOBIITI:StopPlace:43804",,"Coll. M. Duras",,44.90272,-0.23608,,,1,,,0,,
"MOBIITI:StopPlace:47169","","Noliquet","",45.003666,-0.512558,,,1,,,0,,
"MOBIITI:StopPlace:47160","","Lacone","",45.000683,-0.500161,,,1,,,0,,
"MOBIITI:StopPlace:46070",,"Boulevard Trarieux",,44.84159,-0.546417,,,1,,,0,,
"MOBIITI:StopPlace:47166",,"La Galliasse",,44.991882,-0.486118,,,1,,,0,,
"MOBIITI:StopPlace:47163","","Mondion","",44.999413,-0.494616,,,1,,,0,,
"MOBIITI:StopPlace:43810",,"Rte de Lartigue",,44.876564,-0.396931,,,1,,,0,,
"MOBIITI:StopPlace:44900",,"Cournau",,44.879486,-0.435956,,,1,,,0,,
"MOBIITI:StopPlace:43812",,"Les Hauts de Beychac",,44.88198,-0.401958,,,1,,,0,,
"MOBIITI:StopPlace:43811",,"L'Intendant Nord",,44.878994,-0.383487,,,1,,,0,,
"MOBIITI:StopPlace:43814",,"La Barrade",,44.88129,-0.370148,,,1,,,0,,
"MOBIITI:StopPlace:43813",,"Zone du Lapin",,44.878414,-0.347982,,,1,,,0,,
"MOBIITI:StopPlace:43816",,"La Lande de Bertin",,44.875614,-0.37623,,,1,,,0,,
"MOBIITI:StopPlace:43815",,"Beychac",,44.874535,-0.396682,,,1,,,0,,
"MOBIITI:StopPlace:47177",,"Buttinière",,44.864296,-0.524768,,,1,,,0,,
"MOBIITI:StopPlace:46088","","Porte de Bourgogne","",44.836494,-0.566121,,,1,,,0,,
"MOBIITI:StopPlace:43807",,"Coll. J. Auriac",,44.883064,-0.285242,,,1,,,0,,
"MOBIITI:StopPlace:43806",,"Grand Cazau",,44.88153,-0.343082,,,1,,,0,,
"MOBIITI:StopPlace:43809",,"Rte de l'Eglise",,44.87785,-0.400504,,,1,,,0,,
"MOBIITI:StopPlace:43808",,"Lot. Marty",,44.872295,-0.37526,,,1,,,0,,
"MOBIITI:StopPlace:43821",,"Max  Linder",,44.91727,-0.240527,,,1,,,0,,
"MOBIITI:StopPlace:43820",,"Fosses Longues",,44.870937,-0.350707,,,1,,,0,,
"MOBIITI:StopPlace:43823",,"Imp des Sarments",,44.9758,-0.412301,,,1,,,0,,
"MOBIITI:StopPlace:43822",,"La Gare",,44.971718,-0.383624,,,1,,,0,,
"MOBIITI:StopPlace:43825",,"Cabarieu",,44.985443,-0.407014,,,1,,,0,,
"MOBIITI:StopPlace:43824",,"Chem. de Granger",,45.00003,-0.435213,,,1,,,0,,
"MOBIITI:StopPlace:43827",,"Millardet",,44.997486,-0.433101,,,1,,,0,,
"MOBIITI:StopPlace:43826",,"La Virvee",,44.99318,-0.401201,,,1,,,0,,
"MOBIITI:StopPlace:47184",,"Avenue de Bordeaux",,44.88713,-0.507332,,,1,,,0,,
"MOBIITI:StopPlace:47183",,"Carbon Blanc Centre",,44.89377,-0.500835,,,1,,,0,,
"MOBIITI:StopPlace:47186",,"La Ramade",,44.877922,-0.510723,,,1,,,0,,
"MOBIITI:StopPlace:43818",,"Boutin",,44.862263,-0.369193,,,1,,,0,,
"MOBIITI:StopPlace:43817",,"L'Orme",,44.86322,-0.373114,,,1,,,0,,
"MOBIITI:StopPlace:43819",,"Hurey",,44.869747,-0.355961,,,1,,,0,,
"MOBIITI:StopPlace:43832",,"Ecole S. Lacore",,44.99433,-0.436063,,,1,,,0,,
"MOBIITI:StopPlace:43831",,"Chem. du Rivet",,44.98515,-0.411279,,,1,,,0,,
"MOBIITI:StopPlace:43834",,"Clos St Martin",,45.00005,-0.433456,,,1,,,0,,
"MOBIITI:StopPlace:43833",,"La Rousse",,44.987938,-0.403796,,,1,,,0,,
"MOBIITI:StopPlace:43836",,"Fontboudeau",,44.998547,-0.437632,,,1,,,0,,
"MOBIITI:StopPlace:43835",,"Reden",,44.998276,-0.401928,,,1,,,0,,
"MOBIITI:StopPlace:43838",,"Patoche",,45.004883,-0.446917,,,1,,,0,,
"MOBIITI:StopPlace:43837",,"Intermarche",,44.995605,-0.44006,,,1,,,0,,
"MOBIITI:StopPlace:43830",,"Lycée Privé Ste Marie",,44.986732,-0.437943,,,1,,,0,,
"MOBIITI:StopPlace:43829",,"Res. Paul Valery",,44.988697,-0.431447,,,1,,,0,,
"MOBIITI:StopPlace:43828",,"Bourg",,44.966763,-0.372571,,,1,,,0,,
"MOBIITI:StopPlace:43601",,"Bois de Brouilla",,45.021393,-0.437363,,,1,,,0,,
"MOBIITI:StopPlace:43843",,"Le Gabaron",,44.954594,-0.345523,,,1,,,0,,
"MOBIITI:StopPlace:43600",,"Rue de Guillou",,45.023438,-0.445895,,,1,,,0,,
"MOBIITI:StopPlace:43842",,"Pont de Loze",,44.99246,-0.431446,,,1,,,0,,
"MOBIITI:StopPlace:43603",,"Douat",,45.028397,-0.435666,,,1,,,0,,
"MOBIITI:StopPlace:43845",,"Bertineau",,44.94852,-0.158,,,1,,,0,,
"MOBIITI:StopPlace:43602",,"Les Chaumes",,45.024773,-0.429064,,,1,,,0,,
"MOBIITI:StopPlace:43605",,"La Sicarderie",,45.04757,-0.42805,,,1,,,0,,
"MOBIITI:StopPlace:43847",,"Catusseau",,44.923428,-0.207938,,,1,,,0,,
"MOBIITI:StopPlace:43604",,"Le Sartre",,45.051235,-0.43925,,,1,,,0,,
"MOBIITI:StopPlace:43846",,"La Croix de St Andre",,44.93991,-0.178763,,,1,,,0,,
"MOBIITI:StopPlace:43607",,"Ecole",,45.017094,-0.4624,,,1,,,0,,
"MOBIITI:StopPlace:43849",,"Bourg",,44.872147,-0.126897,,,1,,,0,,
"MOBIITI:StopPlace:43606",,"Bois Martin",,45.03793,-0.414216,,,1,,,0,,
"MOBIITI:StopPlace:43848",,"Fontmuree",,44.95297,-0.129347,,,1,,,0,,
"MOBIITI:StopPlace:43841",,"Terrefort",,44.989605,-0.456669,,,1,,,0,,
"MOBIITI:StopPlace:43840",,"Le Tasta",,45.003624,-0.443213,,,1,,,0,,
"MOBIITI:StopPlace:43839",,"Lot les Fougeres",,45.00421,-0.43785,,,1,,,0,,
"MOBIITI:StopPlace:43612",,"La Croix de Merlet",,45.062775,-0.399184,,,1,,,0,,
"MOBIITI:StopPlace:44702",,"Les Huttes",,45.530727,-1.104715,,,1,,,0,,
"MOBIITI:StopPlace:43854",,"Bourg",,44.896072,-0.155554,,,1,,,0,,
"MOBIITI:StopPlace:44703",,"Rue des Mesanges",,45.546844,-1.059825,,,1,,,0,,
"MOBIITI:StopPlace:43611",,"Les Ligers",,45.053333,-0.427816,,,1,,,0,,
"MOBIITI:StopPlace:43853",,"Villemaurine",,44.89641,-0.15052,,,1,,,0,,
"MOBIITI:StopPlace:44700",,"Eglise",,45.543507,-1.063127,,,1,,,0,,
"MOBIITI:StopPlace:43856",,"Bourg",,44.880245,-0.061154,,,1,,,0,,
"MOBIITI:StopPlace:43613",,"Bourg",,45.073036,-0.40828,,,1,,,0,,
"MOBIITI:StopPlace:44701",,"Pointe de Grave",,45.56689,-1.065592,,,1,,,0,,
"MOBIITI:StopPlace:43855",,"Eglise",,44.878357,-0.06978,,,1,,,0,,
"MOBIITI:StopPlace:43616",,"Plaisance",,45.091873,-0.431734,,,1,,,0,,
"MOBIITI:StopPlace:44706",,"Le Pastin",,45.557697,-1.067244,,,1,,,0,,
"MOBIITI:StopPlace:43858",,"Centre Commercial",,44.901134,-0.217304,,,1,,,0,,
"MOBIITI:StopPlace:43615",,"Bourg",,45.088985,-0.419281,,,1,,,0,,
"MOBIITI:StopPlace:44707",,"Les Chenes Verts",,45.546875,-1.066636,,,1,,,0,,
"MOBIITI:StopPlace:43857",,"Petit Bouquey",,44.860344,-0.128905,,,1,,,0,,
"MOBIITI:StopPlace:43618",,"Les Ortigues",,45.083946,-0.387434,,,1,,,0,,
"MOBIITI:StopPlace:44704",,"Bourg",,45.248684,-0.835968,,,1,,,0,,
"MOBIITI:StopPlace:44705",,"Lugagnac",,45.250553,-0.853014,,,1,,,0,,
"MOBIITI:StopPlace:43617",,"Pl. St Michel",,44.99276,-0.442177,,,1,,,0,,
"MOBIITI:StopPlace:43859",,"Carre",,44.89789,-0.209663,,,1,,,0,,
"MOBIITI:StopPlace:43850",,"Bourg",,44.875443,-0.132434,,,1,,,0,,
"MOBIITI:StopPlace:43610",,"Vieux Bourg",,45.036285,-0.440121,,,1,,,0,,
"MOBIITI:StopPlace:43852",,"Bourg",,44.895775,-0.124448,,,1,,,0,,
"MOBIITI:StopPlace:43851",,"Bourg",,44.879547,-0.096066,,,1,,,0,,
"MOBIITI:StopPlace:43609",,"Coll. E. Durkheim",,45.043674,-0.421953,,,1,,,0,,
"MOBIITI:StopPlace:43608",,"Jean Mermoz",,45.02693,-0.448036,,,1,,,0,,
"MOBIITI:StopPlace:43623",,"Gueynard",,45.055023,-0.401145,,,1,,,0,,
"MOBIITI:StopPlace:44713",,"Libardac Benon",,45.07322,-0.813859,,,1,,,0,,
"MOBIITI:StopPlace:43865",,"Les Bigaroux",,44.879673,-0.167939,,,1,,,0,,
"MOBIITI:StopPlace:43622",,"Bourg",,45.04171,-0.395032,,,1,,,0,,
"MOBIITI:StopPlace:44714",,"Chat. Baudan",,45.08149,-0.805368,,,1,,,0,,
"MOBIITI:StopPlace:43864",,"Ecole Primaire",,44.877064,-0.190418,,,1,,,0,,
"MOBIITI:StopPlace:43625",,"Meillier",,45.05133,-0.396939,,,1,,,0,,
"MOBIITI:StopPlace:44711",,"Maison de Retraite",,45.03211,-0.798987,,,1,,,0,,
"MOBIITI:StopPlace:43867",,"Petit Bigaroux",,44.876034,-0.172161,,,1,,,0,,
"MOBIITI:StopPlace:43624",,"Baillargeau",,45.047062,-0.394023,,,1,,,0,,
"MOBIITI:StopPlace:44712",,"Rue Audubert",,45.03615,-0.799293,,,1,,,0,,
"MOBIITI:StopPlace:43866",,"Pierrefitte",,44.887928,-0.201632,,,1,,,0,,
"MOBIITI:StopPlace:43627",,"Le Piney",,45.020645,-0.423523,,,1,,,0,,
"MOBIITI:StopPlace:44717",,"Bourg",,45.431232,-1.035149,,,1,,,0,,
"MOBIITI:StopPlace:43869",,"Ferrandat",,44.868153,-0.144701,,,1,,,0,,
"MOBIITI:StopPlace:43626",,"Grand Etienne",,45.022846,-0.423264,,,1,,,0,,
"MOBIITI:StopPlace:44718",,"Le Temple",,45.419945,-1.033481,,,1,,,0,,
"MOBIITI:StopPlace:43868",,"J. Marie",,44.890507,-0.204978,,,1,,,0,,
"MOBIITI:StopPlace:44715",,"Le Tris",,45.081947,-0.795153,,,1,,,0,,
"MOBIITI:StopPlace:43629",,"Baudet",,45.090515,-0.385367,,,1,,,0,,
"MOBIITI:StopPlace:44716",,"Les Fougeres",,45.02741,-0.787618,,,1,,,0,,
"MOBIITI:StopPlace:43628",,"Beauvent",,45.14725,-0.366557,,,1,,,0,,
"MOBIITI:StopPlace:43861",,"Bourg",,44.85558,-0.113054,,,1,,,0,,
"MOBIITI:StopPlace:44710",,"Le Calvaire",,45.513306,-1.12096,,,1,,,0,,
"MOBIITI:StopPlace:43860",,"Laglaye",,44.855316,-0.09992,,,1,,,0,,
"MOBIITI:StopPlace:43621",,"Champ de Foire",,44.99521,-0.443568,,,1,,,0,,
"MOBIITI:StopPlace:43863",,"Croix Fourche",,44.869793,-0.187854,,,1,,,0,,
"MOBIITI:StopPlace:43620",,"Bousquet",,45.079895,-0.38206,,,1,,,0,,
"MOBIITI:StopPlace:43862",,"Foyer communal",,44.87599,-0.190544,,,1,,,0,,
"MOBIITI:StopPlace:43619",,"Seguin",,45.09515,-0.437779,,,1,,,0,,
"MOBIITI:StopPlace:44708",,"La Briqueterie",,45.521168,-1.107381,,,1,,,0,,
"MOBIITI:StopPlace:44709",,"Rue de la Vissoule",,45.54212,-1.083042,,,1,,,0,,
"MOBIITI:StopPlace:44724",,"Coudot",,45.11897,-0.730811,,,1,,,0,,
"MOBIITI:StopPlace:43634",,"Pierrebrune",,45.149685,-0.355597,,,1,,,0,,
"MOBIITI:StopPlace:43876",,"Micouleau",,44.84091,-0.145397,,,1,,,0,,
"MOBIITI:StopPlace:44725",,"Cussac le Vieux",,45.10119,-0.726527,,,1,,,0,,
"MOBIITI:StopPlace:43633",,"Foyer Communal",,45.10823,-0.342997,,,1,,,0,,
"MOBIITI:StopPlace:43875",,"Eglise",,44.84451,-0.16202,,,1,,,0,,
"MOBIITI:StopPlace:43636",,"Le Coutit",,45.096935,-0.388684,,,1,,,0,,
"MOBIITI:StopPlace:44722",,"La Planquette",,45.399376,-1.036167,,,1,,,0,,
"MOBIITI:StopPlace:43878",,"Bourg",,44.81365,-0.139736,,,1,,,0,,
"MOBIITI:StopPlace:43635",,"La Croix du Balais",,45.084763,-0.382859,,,1,,,0,,
"MOBIITI:StopPlace:44723",,"Les Goujons",,45.391693,-1.037767,,,1,,,0,,
"MOBIITI:StopPlace:43877",,"Mairie",,44.84295,-0.14544,,,1,,,0,,
"MOBIITI:StopPlace:43638",,"Font du Vergne",,45.107418,-0.383982,,,1,,,0,,
"MOBIITI:StopPlace:44728",,"Rue du Vieux Chene",,45.09798,-0.722504,,,1,,,0,,
"MOBIITI:StopPlace:43637",,"Mairie",,45.10005,-0.389521,,,1,,,0,,
"MOBIITI:StopPlace:44729",,"Poignet",,45.09068,-0.724498,,,1,,,0,,
"MOBIITI:StopPlace:43879",,"Lieutenant",,44.804012,-0.131607,,,1,,,0,,
"MOBIITI:StopPlace:44726",,"Rue Fontaine Ourdille",,45.09796,-0.733765,,,1,,,0,,
"MOBIITI:StopPlace:44727",,"Bourg",,45.095177,-0.720207,,,1,,,0,,
"MOBIITI:StopPlace:43639",,"Jean Petit",,45.111828,-0.424749,,,1,,,0,,
"MOBIITI:StopPlace:43870",,"Mezieres",,44.854534,-0.062518,,,1,,,0,,
"MOBIITI:StopPlace:44720",,"Camp. la Mariflaude",,45.18646,-1.040043,,,1,,,0,,
"MOBIITI:StopPlace:43630",,"Bourg",,45.111523,-0.443394,,,1,,,0,,
"MOBIITI:StopPlace:43872",,"Les Demoiselles",,44.854767,-0.072854,,,1,,,0,,
"MOBIITI:StopPlace:44721",,"Gaudin",,45.40541,-1.035327,,,1,,,0,,
"MOBIITI:StopPlace:43871",,"Gory",,44.855026,-0.08596,,,1,,,0,,
"MOBIITI:StopPlace:43632",,"Cosson",,45.104317,-0.443616,,,1,,,0,,
"MOBIITI:StopPlace:43874",,"Bourg",,44.853752,-0.042964,,,1,,,0,,
"MOBIITI:StopPlace:43631",,"Les Michauds 1",,45.107815,-0.44338,,,1,,,0,,
"MOBIITI:StopPlace:43873",,"Le Paradis",,44.854343,-0.050642,,,1,,,0,,
"MOBIITI:StopPlace:44719",,"Chateau d'Eau",,45.1875,-1.055552,,,1,,,0,,
"MOBIITI:StopPlace:43645",,"Ferchaud",,45.29085,-0.569675,,,1,,,0,,
"MOBIITI:StopPlace:43403",,"Pont du Mulet",,45.00696,-0.396334,,,1,,,0,,
