stop_id,stop_code,stop_name,stop_desc,stop_lat,stop_lon,zone_id,stop_url,location_type,parent_station,stop_timezone,wheelchair_boarding,level_id,platform_code
"MOBIITI:StopPlace:44636",,"Les Eyres",,45.44248,-1.095777,,,1,,,2,,
"MOBIITI:StopPlace:45968",,"Pins Francs",,44.866707,-0.623598,,,1,,,0,,
"MOBIITI:StopPlace:44637",,"Gendarmerie",,45.079006,-1.046135,,,1,,,2,,
"MOBIITI:StopPlace:44634",,"Carr. de Daugagnan",,45.43997,-1.064116,,,1,,,2,,
"MOBIITI:StopPlace:44635",,"Garage Piot",,45.444885,-1.107622,,,1,,,2,,
"MOBIITI:StopPlace:43789",,"Lycees",,44.86927,-0.523403,,,1,,,2,,
"MOBIITI:StopPlace:44638",,"ROUTE DE L'HOPITAL",,45.294323,-0.879185,,,1,,,2,,
"MOBIITI:StopPlace:44639",,"Villeneuve",,45.39264,-0.887135,,,1,,,2,,
"MOBIITI:StopPlace:43780",,"Vivier",,44.896137,-0.481458,,,1,,,2,,
"MOBIITI:StopPlace:43782",,"Cardinal",,44.90026,-0.477769,,,1,,,2,,
"MOBIITI:StopPlace:43781",,"Lot. Jeanjean",,44.90332,-0.477054,,,1,,,2,,
"MOBIITI:StopPlace:44632",,"Chemin Sablé des Pins",,45.40299,-0.986978,,,1,,,2,,
"MOBIITI:StopPlace:43784",,"Lot. Les Places",,44.899006,-0.485472,,,1,,,2,,
"MOBIITI:StopPlace:44633",,"Bourg",,45.443645,-1.089214,,,1,,,2,,
"MOBIITI:StopPlace:43783",,"Baron",,44.897827,-0.477224,,,1,,,2,,
"MOBIITI:StopPlace:44630",,"St Gaux",,45.26629,-0.908282,,,1,,,2,,
"MOBIITI:StopPlace:44631",,"BLAIGNAN_stade",,45.321075,-0.880832,,,1,,,2,,
"MOBIITI:StopPlace:44647",,"Potensac",,45.306786,-0.858776,,,1,,,2,,
"MOBIITI:StopPlace:44648",,"Le Dez",,45.372578,-1.006529,,,1,,,2,,
"MOBIITI:StopPlace:45976","","Soubiras","",44.86333,-0.61859,,,1,,,0,,
"MOBIITI:StopPlace:44645",,"Peyressan",,45.316612,-0.839709,,,1,,,2,,
"MOBIITI:StopPlace:44646",,"Plautignan",,45.30548,-0.851659,,,1,,,2,,
"MOBIITI:StopPlace:44649",,"Larnac",,45.37542,-1.000045,,,1,,,2,,
"MOBIITI:StopPlace:44640",,"Lot. le Pointon",,45.39313,-0.915082,,,1,,,2,,
"MOBIITI:StopPlace:43795",,"Le Poteau",,44.91913,-0.480461,,,1,,,2,,
"MOBIITI:StopPlace:44643",,"Bourg",,45.307438,-0.835657,,,1,,,2,,
"MOBIITI:StopPlace:43794",,"Maison Neuve",,44.89472,-0.27408,,,1,,,2,,
"MOBIITI:StopPlace:44644",,"Lussan",,45.29925,-0.839194,,,1,,,2,,
"MOBIITI:StopPlace:43797",,"L'Intendant",,44.877605,-0.376341,,,1,,,2,,
"MOBIITI:StopPlace:44641",,"Bourg",,45.3957,-0.895383,,,1,,,2,,
"MOBIITI:StopPlace:43796",,"Mairie",,44.87054,-0.371596,,,1,,,2,,
"MOBIITI:StopPlace:44642",,"La Verdasse",,45.38758,-0.905535,,,1,,,2,,
"MOBIITI:StopPlace:45989",,"Trigan",,44.763046,-0.559739,,,1,,,0,,
"MOBIITI:StopPlace:44658",,"La Hontane 2",,45.373016,-0.987687,,,1,,,2,,
"MOBIITI:StopPlace:44659",,"Mairie",,45.286266,-0.789624,,,1,,,2,,
"MOBIITI:StopPlace:44656",,"Le Gadet",,45.367252,-1.012116,,,1,,,2,,
"MOBIITI:StopPlace:44657",,"Bourg",,45.362762,-0.977028,,,1,,,2,,
"MOBIITI:StopPlace:45509",,"Grand-Lebrun",,44.850792,-0.6065,,,1,,,0,,
"MOBIITI:StopPlace:45508","","Quinconces","",44.844902,-0.573309,,,1,,,0,,
"MOBIITI:StopPlace:44650",,"Gare",,45.36758,-1.001859,,,1,,,2,,
"MOBIITI:StopPlace:44651",,"Semian",,45.369675,-1.021376,,,1,,,2,,
"MOBIITI:StopPlace:44654",,"Queyzac",,45.347813,-0.998578,,,1,,,2,,
"MOBIITI:StopPlace:44655",,"Carr. des Ourmes",,45.339516,-1.006663,,,1,,,2,,
"MOBIITI:StopPlace:46831",,"Victor Hugo",,44.89747,-0.497301,,,1,,,0,,
"MOBIITI:StopPlace:44652",,"La Hontane",,45.366894,-0.988138,,,1,,,2,,
"MOBIITI:StopPlace:44653",,"Les Ourmes 1",,45.34122,-1.003998,,,1,,,2,,
"MOBIITI:StopPlace:44669",,"Bourg",,45.321434,-0.956452,,,1,,,2,,
"MOBIITI:StopPlace:45514","","Bel-Orme","",44.84743,-0.595464,,,1,,,0,,
"MOBIITI:StopPlace:44667",,"Luc Blanc",,45.298676,-0.971593,,,1,,,2,,
"MOBIITI:StopPlace:45515","","Gambetta Mériadeck","",44.84024,-0.583218,,,1,,,0,,
"MOBIITI:StopPlace:44668",,"Pey Broustera",,45.312943,-0.979529,,,1,,,2,,
"MOBIITI:StopPlace:44661",,"Bourgueyraud",,45.313988,-0.95711,,,1,,,2,,
"MOBIITI:StopPlace:44662",,"Bourg",,45.343636,-0.848837,,,1,,,2,,
"MOBIITI:StopPlace:44660",,"La Marechale",,45.3092,-0.784998,,,1,,,2,,
"MOBIITI:StopPlace:44665",,"Lande Basse",,45.292576,-0.965617,,,1,,,2,,
"MOBIITI:StopPlace:44666",,"Le Placet",,45.313194,-0.962012,,,1,,,2,,
"MOBIITI:StopPlace:44663",,"Coudessan",,45.336456,-0.994015,,,1,,,2,,
"MOBIITI:StopPlace:44664",,"Blanc",,45.309303,-1.001168,,,1,,,2,,
"MOBIITI:StopPlace:45525",,"Roger Allo",,44.84426,-0.589357,,,1,,,0,,
"MOBIITI:StopPlace:44678",,"La Lande",,45.345917,-0.884387,,,1,,,2,,
"MOBIITI:StopPlace:44679",,"La Metairie",,45.33926,-0.911195,,,1,,,2,,
"MOBIITI:StopPlace:44672",,"Le Sablonat",,45.348415,-0.82384,,,1,,,2,,
"MOBIITI:StopPlace:44673",,"Taudinet",,45.311127,-0.96313,,,1,,,2,,
"MOBIITI:StopPlace:44670",,"Biail",,45.341484,-0.980429,,,1,,,2,,
"MOBIITI:StopPlace:44671",,"Bourg",,45.35552,-0.825618,,,1,,,2,,
"MOBIITI:StopPlace:44676",,"Bourg",,45.337666,-0.897573,,,1,,,2,,
"MOBIITI:StopPlace:44677",,"Le Sablona",,45.352585,-0.928945,,,1,,,2,,
"MOBIITI:StopPlace:44674",,"Rouman 6 Bis",,45.310947,-1.005748,,,1,,,2,,
"MOBIITI:StopPlace:44675",,"Rte du Petit Moulin",,45.335815,-0.983161,,,1,,,2,,
"MOBIITI:StopPlace:44207",,"Ricotte",,44.68359,-0.51158,,,1,,,2,,
"MOBIITI:StopPlace:44208",,"La Cave",,44.709923,-0.549291,,,1,,,2,,
"MOBIITI:StopPlace:46868","","Le Poteau","",44.86546,-0.473693,,,1,,,0,,
"MOBIITI:StopPlace:44205",,"La Sauque",,44.691307,-0.512052,,,1,,,2,,
"MOBIITI:StopPlace:44689",,"Passe de Pechaud",,45.468307,-1.117459,,,1,,,2,,
"MOBIITI:StopPlace:44206",,"Coudougney",,44.685776,-0.519525,,,1,,,2,,
"MOBIITI:StopPlace:44209",,"Bourg",,44.713627,-0.542849,,,1,,,2,,
"MOBIITI:StopPlace:45530","","Gare Routière","",44.89681,-0.72186,,,1,,,0,,
"MOBIITI:StopPlace:44683",,"Rue des Fontaines",,45.308136,-0.89666,,,1,,,2,,
"MOBIITI:StopPlace:44200",,"Gendarmerie",,44.73485,-0.598728,,,1,,,2,,
"MOBIITI:StopPlace:45531",,"Belfort",,44.894524,-0.767959,,,1,,,0,,
"MOBIITI:StopPlace:44684",,"Lafon",,45.31226,-0.892498,,,1,,,2,,
"MOBIITI:StopPlace:44681",,"Rt Moulin Bourdieu 17",,45.352535,-0.908378,,,1,,,2,,
"MOBIITI:StopPlace:44682",,"Meillan",,45.35676,-0.927352,,,1,,,2,,
"MOBIITI:StopPlace:44203",,"Bourg",,44.681877,-0.525455,,,1,,,2,,
"MOBIITI:StopPlace:44687",,"Jau",,45.41764,-0.973597,,,1,,,2,,
"MOBIITI:StopPlace:44204",,"Av. Capdevielle",,44.686928,-0.536312,,,1,,,2,,
"MOBIITI:StopPlace:44688","","Gare TER","",45.50824,-1.118243,,,1,,,2,,
"MOBIITI:StopPlace:44201",,"Bourg",,44.72873,-0.599854,,,1,,,2,,
"MOBIITI:StopPlace:44685",,"Bourg",,45.327675,-0.912887,,,1,,,2,,
"MOBIITI:StopPlace:44686",,"La Hourcade",,45.422035,-0.981152,,,1,,,2,,
"MOBIITI:StopPlace:56659","","TIZAC-DE-CURTON - Bel Air","",44.82241,-0.24881,,,1,,,2,,
"MOBIITI:StopPlace:44680",,"Le Palena",,45.360386,-0.929147,,,1,,,2,,
"MOBIITI:StopPlace:56656","","MOULON - Gennequin","",44.835953,-0.21034,,,1,,,2,,
"MOBIITI:StopPlace:44218",,"Eglise",,44.709713,-0.482087,,,1,,,2,,
"MOBIITI:StopPlace:44219",,"Av. Gal de Gaulle",,44.752026,-0.533647,,,1,,,2,,
"MOBIITI:StopPlace:44216",,"Lamothe",,44.709873,-0.466177,,,1,,,2,,
"MOBIITI:StopPlace:44217",,"Les Chambres",,44.711422,-0.474025,,,1,,,2,,
"MOBIITI:StopPlace:45541",,"Village de Cerillan",,44.89459,-0.757708,,,1,,,0,,
"MOBIITI:StopPlace:44694",,"Dignac",,45.414295,-0.946933,,,1,,,2,,
"MOBIITI:StopPlace:44210",,"Carr. la Morelle",,44.727737,-0.548915,,,1,,,2,,
"MOBIITI:StopPlace:44695",,"Port de Goulee",,45.40492,-0.910842,,,1,,,2,,
"MOBIITI:StopPlace:44211",,"Cimetiere",,44.716022,-0.542554,,,1,,,2,,
"MOBIITI:StopPlace:44692",,"Port de Richard",,45.417274,-0.92753,,,1,,,2,,
"MOBIITI:StopPlace:45540",,"Village d'Issac",,44.895725,-0.773219,,,1,,,0,,
"MOBIITI:StopPlace:44693",,"Loirac",,45.397873,-0.965703,,,1,,,2,,
"MOBIITI:StopPlace:44698",,"Cazeaux",,45.24809,-0.879185,,,1,,,2,,
"MOBIITI:StopPlace:44214",,"Haut Tartavisat",,44.708694,-0.555604,,,1,,,2,,
"MOBIITI:StopPlace:45546","","République","",44.895145,-0.714425,,,1,,,0,,
"MOBIITI:StopPlace:44699",,"Grandes Maisons",,45.542156,-1.076012,,,1,,,2,,
"MOBIITI:StopPlace:44215",,"Eglise",,44.724937,-0.471984,,,1,,,2,,
"MOBIITI:StopPlace:44212",,"Le Breyra",,44.71456,-0.551862,,,1,,,2,,
"MOBIITI:StopPlace:45543",,"Collège d'Hastignan",,44.89376,-0.745395,,,1,,,0,,
"MOBIITI:StopPlace:44696",,"La Caussade",,45.238796,-0.875924,,,1,,,2,,
"MOBIITI:StopPlace:44697",,"Rue des Primeveres",,45.26089,-0.836852,,,1,,,2,,
"MOBIITI:StopPlace:44213",,"Rte de la Haille",,44.741154,-0.550209,,,1,,,2,,
"MOBIITI:StopPlace:44690",,"Res. la Chenaie",,45.498962,-1.119455,,,1,,,2,,
"MOBIITI:StopPlace:44691",,"Centre",,45.40869,-0.958578,,,1,,,2,,
"MOBIITI:StopPlace:44229",,"Salle Polyvalente",,44.67081,-0.47756,,,1,,,2,,
"MOBIITI:StopPlace:44227",,"Pl. Jeansotte",,44.652225,-0.469799,,,1,,,2,,
"MOBIITI:StopPlace:44228",,"Sarransot",,44.646336,-0.450628,,,1,,,2,,
"MOBIITI:StopPlace:43373",,"Boursereau",,44.96683,-0.393506,,,1,,,2,,
"MOBIITI:StopPlace:46400","","La Morandière","av de Magudas",44.858658,-0.678093,,,1,,,0,,
"MOBIITI:StopPlace:44221",,"Eglise",,44.75538,-0.530189,,,1,,,2,,
"MOBIITI:StopPlace:44222",,"Stade",,44.752213,-0.540564,,,1,,,2,,
"MOBIITI:StopPlace:43375",,"Cazeneuve",,44.979412,-0.354324,,,1,,,2,,
"MOBIITI:StopPlace:43374",,"La Mahelle",,45.012146,-0.353548,,,1,,,2,,
"MOBIITI:StopPlace:44220",,"Tennis",,44.751385,-0.544104,,,1,,,2,,
"MOBIITI:StopPlace:43377",,"Monument Sidi Brahim",,45.01889,-0.314225,,,1,,,2,,
"MOBIITI:StopPlace:44225",,"Marguerites",,44.72422,-0.527838,,,1,,,2,,
"MOBIITI:StopPlace:45556","","Herriot","Centre Commercial",44.884193,-0.690959,,,1,,,0,,
"MOBIITI:StopPlace:43376",,"Les Agrières",,44.974426,-0.356443,,,1,,,2,,
"MOBIITI:StopPlace:44226",,"Lacanau",,44.660236,-0.495583,,,1,,,2,,
"MOBIITI:StopPlace:43379",,"La Massonne",,45.032166,-0.306499,,,1,,,2,,
"MOBIITI:StopPlace:44223",,"Rue de la Peguillere",,44.74579,-0.532085,,,1,,,2,,
"MOBIITI:StopPlace:43378",,"Jean Roux",,45.021385,-0.304929,,,1,,,2,,
"MOBIITI:StopPlace:44224",,"Allee Trioublat",,44.74895,-0.530921,,,1,,,2,,
"MOBIITI:StopPlace:44238",,"Bourg",,44.650173,-0.50433,,,1,,,2,,
"MOBIITI:StopPlace:46417","","Mérignac Soleil","",44.831043,-0.656871,,,1,,,0,,
"MOBIITI:StopPlace:46416",,"La Grave",,44.822044,-0.691686,,,1,,,0,,
"MOBIITI:StopPlace:44239",,"Moussurot",,44.652863,-0.50179,,,1,,,2,,
"MOBIITI:StopPlace:43384",,"La Marche",,44.92306,-0.287405,,,1,,,2,,
"MOBIITI:StopPlace:46411",,"Berles",,44.85944,-0.685199,,,1,,,0,,
"MOBIITI:StopPlace:44232",,"La Rouille",,44.64906,-0.461317,,,1,,,2,,
"MOBIITI:StopPlace:43383",,"Capet",,44.946667,-0.274086,,,1,,,2,,
"MOBIITI:StopPlace:44233",,"Le Bouscaut",,44.750385,-0.547566,,,1,,,2,,
"MOBIITI:StopPlace:43386",,"Le Chêne de Gombaud",,44.939552,-0.283083,,,1,,,2,,
"MOBIITI:StopPlace:44230",,"Larnavey",,44.657635,-0.474845,,,1,,,2,,
"MOBIITI:StopPlace:43385",,"Bourg",,44.923607,-0.271383,,,1,,,2,,
"MOBIITI:StopPlace:44231",,"Les Argelins",,44.666595,-0.478208,,,1,,,2,,
"MOBIITI:StopPlace:43388",,"Naudin",,44.925575,-0.301276,,,1,,,2,,
"MOBIITI:StopPlace:44236",,"Gassies",,44.615963,-0.543329,,,1,,,2,,
"MOBIITI:StopPlace:43387",,"Loiseau",,44.91912,-0.248127,,,1,,,2,,
"MOBIITI:StopPlace:44237",,"Bourg",,44.6066,-0.553766,,,1,,,2,,
"MOBIITI:StopPlace:44234",,"Martinet",,44.609905,-0.543812,,,1,,,2,,
"MOBIITI:StopPlace:43389",,"La Poste",,44.929497,-0.303687,,,1,,,2,,
"MOBIITI:StopPlace:44235",,"Entre 2 Mers",,44.61584,-0.542692,,,1,,,2,,
"MOBIITI:StopPlace:43380",,"La Pradelle",,45.021027,-0.309717,,,1,,,2,,
"MOBIITI:StopPlace:43382",,"Perron",,44.94156,-0.26968,,,1,,,2,,
"MOBIITI:StopPlace:43381",,"La Gare",,45.022778,-0.300402,,,1,,,2,,
"MOBIITI:StopPlace:46428","","BA 106","",44.81527,-0.709872,,,1,,,2,,
"MOBIITI:StopPlace:44249",,"Coeur de Bourg",,44.719402,-0.512243,,,1,,,2,,
"MOBIITI:StopPlace:43395",,"Le Basque",,44.9646,-0.306982,,,1,,,2,,
"MOBIITI:StopPlace:44243",,"Bigard",,44.664803,-0.495355,,,1,,,2,,
"MOBIITI:StopPlace:43394",,"Marot",,44.97655,-0.326293,,,1,,,2,,
"MOBIITI:StopPlace:44244",,"Mathalin",,44.6686,-0.494008,,,1,,,2,,
"MOBIITI:StopPlace:43397",,"Eymon",,44.97142,-0.321737,,,1,,,2,,
"MOBIITI:StopPlace:44241",,"Peillic",,44.631393,-0.530548,,,1,,,2,,
"MOBIITI:StopPlace:43396",,"Canet",,44.957817,-0.306641,,,1,,,2,,
"MOBIITI:StopPlace:44242",,"Curtot",,44.654713,-0.506463,,,1,,,2,,
"MOBIITI:StopPlace:43399",,"Eglise",,44.96769,-0.306316,,,1,,,2,,
"MOBIITI:StopPlace:44247",,"La Prade",,44.696922,-0.511657,,,1,,,2,,
"MOBIITI:StopPlace:43398",,"Gaudin",,45.0201,-0.337051,,,1,,,2,,
"MOBIITI:StopPlace:44248",,"Cordon d'Or",,44.71989,-0.518388,,,1,,,2,,
"MOBIITI:StopPlace:44245",,"Rue des Sources",,44.706604,-0.457714,,,1,,,2,,
"MOBIITI:StopPlace:44246",,"Le Pontet",,44.71023,-0.518274,,,1,,,2,,
"MOBIITI:StopPlace:56217","","LIBOURNE - Centre Commercial","",44.901894,-0.220893,,,1,,,0,,
"MOBIITI:StopPlace:43391",,"Farideuil",,44.974003,-0.386407,,,1,,,2,,
"MOBIITI:StopPlace:43390",,"Vincent",,44.94639,-0.289223,,,1,,,2,,
"MOBIITI:StopPlace:44240",,"Jacoulet",,44.65285,-0.533504,,,1,,,2,,
"MOBIITI:StopPlace:43393",,"Perey",,44.97022,-0.318308,,,1,,,2,,
"MOBIITI:StopPlace:43392",,"Terrachère",,44.9529,-0.306149,,,1,,,2,,
"MOBIITI:StopPlace:45109",,"Cales",,44.47585,-0.227985,,,1,,,2,,
"MOBIITI:StopPlace:45107",,"Crabey",,44.398148,-0.125358,,,1,,,2,,
"MOBIITI:StopPlace:45108",,"Bourg",,44.393673,-0.109362,,,1,,,2,,
"MOBIITI:StopPlace:45101",,"Centre",,44.431602,-0.21394,,,1,,,2,,
"MOBIITI:StopPlace:45585",,"Coubertin",,44.86222,-0.645088,,,1,,,0,,
"MOBIITI:StopPlace:44254",,"Le Reys",,44.673656,-0.493818,,,1,,,2,,
"MOBIITI:StopPlace:45102",,"Les Acacias",,44.437473,-0.225595,,,1,,,2,,
"MOBIITI:StopPlace:46432",,"Château Rouquey",,44.828075,-0.671195,,,1,,,0,,
"MOBIITI:StopPlace:44255",,"Roman",,44.68234,-0.511025,,,1,,,2,,
"MOBIITI:StopPlace:44252",,"Croix de l'Aruan",,44.7034,-0.452086,,,1,,,2,,
"MOBIITI:StopPlace:46431",,"Lycée sud Médoc","Bois de Mont",44.904896,-0.71362,,,1,,,0,,
"MOBIITI:StopPlace:45100",,"La Potence",,44.39994,-0.131719,,,1,,,2,,
"MOBIITI:StopPlace:44253",,"Gare TER",,44.700806,-0.450203,,,1,,,2,,
"MOBIITI:StopPlace:44258",,"Av. du Lac",,44.757374,-0.636389,,,1,,,2,,
"MOBIITI:StopPlace:45105",,"La Tuilerie",,44.38874,-0.056938,,,1,,,2,,
"MOBIITI:StopPlace:46437",,"Oscar Auriac",,44.818287,-0.700224,,,1,,,0,,
"MOBIITI:StopPlace:45106",,"Caserne des Pompiers",,44.38501,-0.040527,,,1,,,2,,
"MOBIITI:StopPlace:44259",,"Lac Vert",,44.742752,-0.64961,,,1,,,2,,
"MOBIITI:StopPlace:45103",,"Stade",,44.435623,-0.220846,,,1,,,2,,
"MOBIITI:StopPlace:44256",,"Armingas",,44.67301,-0.519321,,,1,,,2,,
"MOBIITI:StopPlace:45104",,"Centre",,44.387024,-0.043976,,,1,,,2,,
"MOBIITI:StopPlace:46434",,"RP Mitterrand",,44.814125,-0.712764,,,1,,,0,,
"MOBIITI:StopPlace:45588",,"Mairie du Haillan",,44.872906,-0.677782,,,1,,,0,,
"MOBIITI:StopPlace:44257","","Gare TER","",44.71677,-0.506251,,,1,,,2,,
"MOBIITI:StopPlace:44250",,"Place",,44.696407,-0.446292,,,1,,,2,,
"MOBIITI:StopPlace:44251",,"Tout Vent",,44.705334,-0.454999,,,1,,,2,,
"MOBIITI:StopPlace:56249","","LIBOURNE - Max Linder","",44.91726,-0.240516,,,1,,,0,,
"MOBIITI:StopPlace:45118",,"Londeix",,44.321747,-0.243264,,,1,,,2,,
"MOBIITI:StopPlace:45119",,"Bourg",,44.292267,-0.261702,,,1,,,2,,
"MOBIITI:StopPlace:44265",,"Centre Commercial",,44.75102,-0.64183,,,1,,,2,,
"MOBIITI:StopPlace:45112",,"Bourg",,44.389324,-0.222154,,,1,,,2,,
"MOBIITI:StopPlace:46444","","Mérignac Centre","",44.84156,-0.647351,,,1,,,2,,
"MOBIITI:StopPlace:45113",,"Encal",,44.406574,-0.224603,,,1,,,2,,
"MOBIITI:StopPlace:44266",,"Salle des Fêtes",,44.526714,-0.657863,,,1,,,2,,
"MOBIITI:StopPlace:45110",,"Capette",,44.389767,-0.068336,,,1,,,2,,
"MOBIITI:StopPlace:44263",,"Bld Broustey",,44.75729,-0.642763,,,1,,,2,,
"MOBIITI:StopPlace:44264",,"Pres de Petiot",,44.75393,-0.641677,,,1,,,2,,
"MOBIITI:StopPlace:45111",,"Bourg",,44.42447,-0.182744,,,1,,,2,,
"MOBIITI:StopPlace:44269",,"Bourg",,44.60502,-0.770309,,,1,,,2,,
"MOBIITI:StopPlace:45116",,"Maison de Retraite",,44.29006,-0.258226,,,1,,,2,,
"MOBIITI:StopPlace:45117",,"Gendarmerie",,44.29633,-0.259133,,,1,,,2,,
"MOBIITI:StopPlace:44267",,"Le Sarroc",,44.66209,-0.736407,,,1,,,2,,
"MOBIITI:StopPlace:45114",,"Houn de la Peyre",,44.39242,-0.235682,,,1,,,2,,
"MOBIITI:StopPlace:44268",,"Tournebride",,44.646015,-0.746093,,,1,,,2,,
"MOBIITI:StopPlace:45115",,"CAT Haute Lande",,44.283207,-0.25313,,,1,,,2,,
"MOBIITI:StopPlace:44261",,"La House",,44.74858,-0.641101,,,1,,,2,,
"MOBIITI:StopPlace:44262",,"Allee du Vivier",,44.75893,-0.637671,,,1,,,2,,
"MOBIITI:StopPlace:44260",,"Quartier Lauray",,44.52719,-0.811644,,,1,,,2,,
"MOBIITI:StopPlace:45129",,"Chat. Madame",,44.649254,-0.021404,,,1,,,2,,
"MOBIITI:StopPlace:44276",,"Le Barbareau",,44.630173,-0.755668,,,1,,,2,,
"MOBIITI:StopPlace:45123",,"Bourg",,44.370674,-0.243747,,,1,,,2,,
"MOBIITI:StopPlace:45124",,"Charron",,44.37446,-0.241961,,,1,,,2,,
"MOBIITI:StopPlace:44277",,"Le Champ Neuf 2",,44.588337,-0.739049,,,1,,,2,,
"MOBIITI:StopPlace:44274",,"Le Garde",,44.61,-0.767862,,,1,,,2,,
"MOBIITI:StopPlace:45121",,"Zone Activite",,44.516075,-0.236596,,,1,,,2,,
"MOBIITI:StopPlace:44275",,"St Jacques",,44.666733,-0.733593,,,1,,,2,,
"MOBIITI:StopPlace:45122",,"Piouguet",,44.36684,-0.243225,,,1,,,2,,
"MOBIITI:StopPlace:45127",,"Rival",,44.656555,-0.018531,,,1,,,2,,
"MOBIITI:StopPlace:45128",,"Mairie",,44.652126,-0.020633,,,1,,,2,,
"MOBIITI:StopPlace:44278",,"La Vignolle",,44.573883,-0.779647,,,1,,,2,,
"MOBIITI:StopPlace:45125",,"Le Bois du Fond",,44.344772,-0.235724,,,1,,,2,,
"MOBIITI:StopPlace:44279",,"Perrin",,44.552193,-0.846271,,,1,,,2,,
"MOBIITI:StopPlace:45126",,"Bourg",,44.6802,-0.011507,,,1,,,2,,
"MOBIITI:StopPlace:44272",,"Le Champ Neuf 1",,44.58617,-0.740304,,,1,,,2,,
"MOBIITI:StopPlace:44273",,"La Lagune du Merle",,44.672318,-0.730245,,,1,,,2,,
"MOBIITI:StopPlace:45120",,"Jean du Blanc",,44.3139,-0.247872,,,1,,,2,,
"MOBIITI:StopPlace:44270",,"Ecole Haureuil",,44.579876,-0.730532,,,1,,,2,,
"MOBIITI:StopPlace:44271",,"Gargails 1",,44.6683,-0.790977,,,1,,,2,,
"MOBIITI:StopPlace:45134",,"Capsus",,44.747417,-1.088612,,,1,,,2,,
"MOBIITI:StopPlace:46466","","Centre Commercial du Lac","",44.8817,-0.566377,,,1,,,0,,
"MOBIITI:StopPlace:45135",,"Lyc. Nord Bassin",,44.75419,-1.076849,,,1,,,2,,
"MOBIITI:StopPlace:45132",,"St Leger de Vignague",,44.698727,-0.050844,,,1,,,2,,
"MOBIITI:StopPlace:45133",,"Salle des Sports",,44.758003,-1.072536,,,1,,,2,,
"MOBIITI:StopPlace:45138",,"Allee P. Despagne",,44.751354,-1.080456,,,1,,,2,,
"MOBIITI:StopPlace:45139",,"Rd Pt du Miami",,44.762844,-1.066998,,,1,,,2,,
"MOBIITI:StopPlace:44289",,"Beliet",,44.50862,-0.788315,,,1,,,2,,
"MOBIITI:StopPlace:45136",,"Comte",,44.74936,-1.107311,,,1,,,2,,
"MOBIITI:StopPlace:45137",,"Querquillas",,44.77606,-1.051825,,,1,,,2,,
"MOBIITI:StopPlace:44280",,"Lot. du Grand Chemin",,44.551395,-0.861165,,,1,,,2,,
"MOBIITI:StopPlace:44283",,"Le Moura",,44.514435,-0.793255,,,1,,,2,,
"MOBIITI:StopPlace:45130",,"Bourg",,44.609608,-0.029426,,,1,,,2,,
"MOBIITI:StopPlace:46461","","Bouliac Centre Commercial","",44.816612,-0.528018,,,1,,,0,,
"MOBIITI:StopPlace:45131",,"La Roue",,44.625877,-0.028305,,,1,,,2,,
"MOBIITI:StopPlace:44281",,"Belin",,44.493095,-0.790325,,,1,,,2,,
"MOBIITI:StopPlace:44282",,"Piste Cyclable",,44.500618,-0.7899,,,1,,,2,,
"MOBIITI:StopPlace:56256","","LIBOURNE - Parc des Sports","",44.908833,-0.235372,,,1,,,0,,
"MOBIITI:StopPlace:45145",,"La Pignada",,44.760723,-1.180255,,,1,,,2,,
"MOBIITI:StopPlace:44298",,"La Louvetiere",,44.727596,-0.67218,,,1,,,2,,
"MOBIITI:StopPlace:45146",,"Rue des Mouettes",,44.650616,-1.251238,,,1,,,2,,
"MOBIITI:StopPlace:46476",,"Pinel",,44.824642,-0.521439,,,1,,,2,,
"MOBIITI:StopPlace:44299",,"Allee de Coppinger",,44.72737,-0.675173,,,1,,,2,,
"MOBIITI:StopPlace:44296",,"La Birade",,44.71553,-0.691812,,,1,,,2,,
"MOBIITI:StopPlace:45143",,"Le Barail",,44.790226,-1.159007,,,1,,,2,,
"MOBIITI:StopPlace:45144",,"Centre",,44.79383,-1.148039,,,1,,,2,,
"MOBIITI:StopPlace:44297",,"La Peloue",,44.72866,-0.675823,,,1,,,2,,
"MOBIITI:StopPlace:45149",,"Allee des Ecureuils",,44.712868,-1.217557,,,1,,,2,,
"MOBIITI:StopPlace:45147",,"Pl. d'Ignac",,44.78643,-1.143504,,,1,,,2,,
"MOBIITI:StopPlace:45148",,"Le Grand Piquey",,44.717613,-1.211688,,,1,,,2,,
"MOBIITI:StopPlace:44290",,"La Fleur",,44.582363,-0.777124,,,1,,,2,,
"MOBIITI:StopPlace:44291",,"Le Pique",,44.59098,-0.774539,,,1,,,2,,
"MOBIITI:StopPlace:45141",,"Centre",,44.742676,-1.098362,,,1,,,2,,
"MOBIITI:StopPlace:44294",,"Av. Compostelle no235",,44.70194,-0.70474,,,1,,,2,,
"MOBIITI:StopPlace:45142",,"Les Jacquets",,44.72808,-1.197685,,,1,,,2,,
"MOBIITI:StopPlace:44295",,"Av. Compostelle no195b",,44.709255,-0.697718,,,1,,,2,,
"MOBIITI:StopPlace:44292",,"Bourg",,44.551037,-0.867235,,,1,,,2,,
"MOBIITI:StopPlace:44293",,"Bellevue",,44.731834,-0.666484,,,1,,,2,,
"MOBIITI:StopPlace:45140",,"Rue de la Carreyre",,44.74593,-1.09258,,,1,,,2,,
"MOBIITI:StopPlace:45156",,"Le Petit Piquey",,44.723328,-1.204691,,,1,,,2,,
"MOBIITI:StopPlace:46487",,"Avenue de Paris",,44.87164,-0.511892,,,1,,,0,,
"MOBIITI:StopPlace:45157",,"Av. des Tourterelles",,44.64007,-1.254395,,,1,,,2,,
"MOBIITI:StopPlace:45154",,"Le Canon",,44.70006,-1.230005,,,1,,,2,,
"MOBIITI:StopPlace:45155",,"Claouey",,44.748817,-1.180991,,,1,,,2,,
"MOBIITI:StopPlace:45158",,"Av. Nord du Phare",,44.648746,-1.248926,,,1,,,2,,
"MOBIITI:StopPlace:45159",,"Av. Sud du Phare",,44.6427,-1.248788,,,1,,,2,,
"MOBIITI:StopPlace:45152",,"Jane de Boy",,44.755856,-1.180181,,,1,,,2,,
"MOBIITI:StopPlace:45153",,"Piraillan",,44.707554,-1.224755,,,1,,,2,,
"MOBIITI:StopPlace:45150",,"Av. Nord",,44.629288,-1.252811,,,1,,,2,,
"MOBIITI:StopPlace:45151",,"La Pointe",,44.6239,-1.247233,,,1,,,2,,
"MOBIITI:StopPlace:45046",,"Le Liloy",,44.584038,-0.259067,,,1,,,2,,
"MOBIITI:StopPlace:44199",,"Clair Bois",,44.73307,-0.607257,,,1,,,2,,
"MOBIITI:StopPlace:46378",,"Bruges Centre",,44.88262,-0.611043,,,1,,,0,,
"MOBIITI:StopPlace:45047",,"Coll. T. Lautrec",,44.545788,-0.251951,,,1,,,2,,
"MOBIITI:StopPlace:45044",,"ZA Birole",,44.653297,-0.334696,,,1,,,2,,
"MOBIITI:StopPlace:45045",,"Bourg",,44.588974,-0.250893,,,1,,,2,,
"MOBIITI:StopPlace:44198",,"Le Bicon",,44.75228,-0.587946,,,1,,,2,,
"MOBIITI:StopPlace:45048",,"Centre Commercial",,44.543118,-0.252204,,,1,,,2,,
"MOBIITI:StopPlace:45049",,"Hopital",,44.54351,-0.24374,,,1,,,2,,
"MOBIITI:StopPlace:44191",,"La Bouhume",,44.738167,-0.596049,,,1,,,2,,
"MOBIITI:StopPlace:44192",,"Pireques",,44.74132,-0.596945,,,1,,,2,,
"MOBIITI:StopPlace:44190",,"Chem. Port des Places",,44.72907,-0.519775,,,1,,,2,,
"MOBIITI:StopPlace:44196",,"Centre Commercial",,44.747253,-0.591124,,,1,,,2,,
"MOBIITI:StopPlace:44193",,"Luxeau",,44.73253,-0.599894,,,1,,,2,,
"MOBIITI:StopPlace:45041","","Hôpital Pellegrin","entrée Est",44.829823,-0.603674,,,1,,,0,,
"MOBIITI:StopPlace:44194",,"Le Luc",,44.7457,-0.594086,,,1,,,2,,
"MOBIITI:StopPlace:45058",,"Techno. Montesquieu",,44.713993,-0.580539,,,1,,,2,,
"MOBIITI:StopPlace:45059",,"Pont de Langon",,44.760098,-0.556418,,,1,,,2,,
"MOBIITI:StopPlace:45050",,"Crs du Gal Leclerc",,44.55355,-0.248718,,,1,,,2,,
"MOBIITI:StopPlace:45051",,"Rd Pt du Languedoc",,44.54946,-0.258059,,,1,,,2,,
"MOBIITI:StopPlace:45052","","Gare TER","",44.554207,-0.255242,,,1,,,2,,
"MOBIITI:StopPlace:45068",,"Bourg",,44.621883,-0.432879,,,1,,,2,,
"MOBIITI:StopPlace:45069",,"Bourg",,44.670563,-0.481488,,,1,,,2,,
"MOBIITI:StopPlace:45066",,"Bourg",,44.513332,-0.566698,,,1,,,2,,
"MOBIITI:StopPlace:46398","","Le Haillan Rostand","",44.858597,-0.667734,,,1,,,0,,
"MOBIITI:StopPlace:45067",,"Teycheney",,44.62555,-0.438056,,,1,,,2,,
"MOBIITI:StopPlace:45060","","Pyrénées","",44.772404,-0.564355,,,1,,,2,,
"MOBIITI:StopPlace:45064",,"Bourg",,44.54801,-0.502015,,,1,,,2,,
"MOBIITI:StopPlace:45065",,"Pl. Michelet",,44.429504,-0.488647,,,1,,,2,,
"MOBIITI:StopPlace:45062",,"Bourg",,44.597195,-0.373498,,,1,,,2,,
"MOBIITI:StopPlace:46394",,"Le Vigean","Centre Commercial",44.88292,-0.631262,,,1,,,0,,
"MOBIITI:StopPlace:45063",,"Bourg",,44.56689,-0.415657,,,1,,,2,,
"MOBIITI:StopPlace:46393",,"Route de Pauillac",,44.884464,-0.63496,,,1,,,2,,
"MOBIITI:StopPlace:45079",,"Bourg",,44.651512,-0.596516,,,1,,,2,,
"MOBIITI:StopPlace:45077",,"Bourg",,44.52652,-0.656039,,,1,,,2,,
"MOBIITI:StopPlace:45078",,"Morisson",,44.659187,-0.597223,,,1,,,2,,
"MOBIITI:StopPlace:45071",,"Bourg",,44.49315,-0.640342,,,1,,,2,,
"MOBIITI:StopPlace:45072",,"Village Vacances",,44.490566,-0.630093,,,1,,,2,,
"MOBIITI:StopPlace:45070",,"Les Colchiques",,44.670933,-0.486194,,,1,,,2,,
"MOBIITI:StopPlace:45075",,"Villagrains",,44.571377,-0.595391,,,1,,,2,,
"MOBIITI:StopPlace:45074",,"Bourg",,44.449394,-0.576636,,,1,,,2,,
"MOBIITI:StopPlace:45088",,"Les Faures",,44.629475,-0.059473,,,1,,,2,,
"MOBIITI:StopPlace:45089",,"Lyc. J. Renou",,44.580055,-0.038615,,,1,,,2,,
"MOBIITI:StopPlace:45082",,"Peleou",,44.480255,-0.876298,,,1,,,2,,
"MOBIITI:StopPlace:45083",,"Bourg",,44.482185,-0.883006,,,1,,,2,,
"MOBIITI:StopPlace:45080",,"Le Lanot",,44.523758,-0.87012,,,1,,,2,,
"MOBIITI:StopPlace:45081",,"Le Mayne",,44.535446,-0.881018,,,1,,,2,,
"MOBIITI:StopPlace:45086",,"Sylva 21",,44.52804,-0.817467,,,1,,,2,,
"MOBIITI:StopPlace:45087",,"Chollet",,44.65123,-0.063001,,,1,,,2,,
"MOBIITI:StopPlace:45084",,"Ecole",,44.48477,-0.88344,,,1,,,2,,
"MOBIITI:StopPlace:45085",,"A63 Echangeur 21",,44.534912,-0.83859,,,1,,,2,,
"MOBIITI:StopPlace:45099",,"Malchauque",,44.41346,-0.156951,,,1,,,2,,
"MOBIITI:StopPlace:45093",,"Bourg",,44.62452,-0.057116,,,1,,,2,,
"MOBIITI:StopPlace:45094",,"St Romain de Vignagu",,44.68378,-0.076431,,,1,,,2,,
"MOBIITI:StopPlace:45091",,"Pl. de la Liberation",,44.58263,-0.036318,,,1,,,2,,
"MOBIITI:StopPlace:45092","","Gare TER","",44.579617,-0.031238,,,1,,,2,,
"MOBIITI:StopPlace:45097",,"Le Touyre",,44.3906,-0.077462,,,1,,,2,,
"MOBIITI:StopPlace:45098",,"Constantin",,44.39069,-0.086011,,,1,,,2,,
"MOBIITI:StopPlace:45095",,"Super U",,44.44476,-0.237098,,,1,,,2,,
"MOBIITI:StopPlace:45096",,"Le Branat",,44.389305,-0.095121,,,1,,,2,,
"MOBIITI:StopPlace:45090",,"Malbat",,44.60307,-0.039873,,,1,,,2,,
"MOBIITI:StopPlace:43700",,"La Haie",,45.326576,-0.577641,,,1,,,2,,
"MOBIITI:StopPlace:43702",,"La Croisette",,45.345127,-0.58677,,,1,,,2,,
"MOBIITI:StopPlace:43701",,"Res. la Pinede",,45.230705,-0.567576,,,1,,,2,,
"MOBIITI:StopPlace:43704",,"Chez Pidoux",,45.331432,-0.593916,,,1,,,2,,
"MOBIITI:StopPlace:43703",,"Bel Air",,45.323692,-0.57696,,,1,,,2,,
"MOBIITI:StopPlace:43711",,"Fondcaillou",,45.01902,-0.453816,,,1,,,2,,
"MOBIITI:StopPlace:43710",,"Le Roux",,45.058002,-0.417495,,,1,,,2,,
"MOBIITI:StopPlace:43713",,"Communs de Tizac",,45.015137,-0.449255,,,1,,,2,,
"MOBIITI:StopPlace:43712",,"Matthieu",,45.021046,-0.452052,,,1,,,2,,
"MOBIITI:StopPlace:43715",,"Manon",,45.07628,-0.431687,,,1,,,2,,
"MOBIITI:StopPlace:43714",,"La Bellue",,45.078594,-0.423489,,,1,,,2,,
"MOBIITI:StopPlace:43717",,"St Martial",,45.0643,-0.417641,,,1,,,2,,
"MOBIITI:StopPlace:43716",,"La Nauve",,45.07537,-0.428415,,,1,,,2,,
"MOBIITI:StopPlace:43708",,"Guillou",,45.023968,-0.441813,,,1,,,2,,
"MOBIITI:StopPlace:43709",,"Rue des Fraisiers",,45.02732,-0.446976,,,1,,,2,,
"MOBIITI:StopPlace:43722",,"Le Canton",,45.08096,-0.431665,,,1,,,2,,
"MOBIITI:StopPlace:43721",,"Le Tasta",,45.080154,-0.427865,,,1,,,2,,
"MOBIITI:StopPlace:43724",,"Sabourin La Lande",,45.08495,-0.450818,,,1,,,2,,
"MOBIITI:StopPlace:43723",,"Methee",,45.087906,-0.441739,,,1,,,2,,
"MOBIITI:StopPlace:43726",,"Vincent",,45.088703,-0.437641,,,1,,,2,,
"MOBIITI:StopPlace:43725",,"Fouquet",,45.08459,-0.459189,,,1,,,2,,
"MOBIITI:StopPlace:43728",,"Colas Brard",,45.04573,-0.369995,,,1,,,2,,
"MOBIITI:StopPlace:43727",,"Landreau",,45.089535,-0.400805,,,1,,,2,,
"MOBIITI:StopPlace:43720",,"Les Trois Maines",,45.07456,-0.413603,,,1,,,2,,
"MOBIITI:StopPlace:43719",,"La Gravette",,45.064724,-0.407793,,,1,,,2,,
"MOBIITI:StopPlace:43718",,"Chadeuil",,45.073303,-0.421173,,,1,,,2,,
"MOBIITI:StopPlace:43737",,"Centre",,44.90834,-0.471667,,,1,,,2,,
"MOBIITI:StopPlace:43736",,"Maurel",,44.90732,-0.474977,,,1,,,2,,
"MOBIITI:StopPlace:45909","","Lycée Daguin","",44.837036,-0.648902,,,1,,,0,,
"MOBIITI:StopPlace:43744",,"Loume",,44.91244,-0.474976,,,1,,,2,,
"MOBIITI:StopPlace:43743",,"L'Argentiere",,44.917175,-0.47657,,,1,,,2,,
"MOBIITI:StopPlace:43746","","Gare Routiere","",44.91487,-0.237262,,,1,,,2,,
"MOBIITI:StopPlace:43745",,"Bourg",,44.880527,-0.461688,,,1,,,2,,
"MOBIITI:StopPlace:43749",,"La Poste",,44.91329,-0.39544,,,1,,,2,,
"MOBIITI:StopPlace:43742",,"Les Places",,44.902775,-0.490465,,,1,,,2,,
"MOBIITI:StopPlace:43741",,"Le Marquisat",,44.90318,-0.483997,,,1,,,2,,
"MOBIITI:StopPlace:44603",,"Chem. de la Foret 64",,45.27246,-0.928931,,,1,,,2,,
"MOBIITI:StopPlace:43755",,"Coll. M. Linder",,44.90987,-0.427601,,,1,,,2,,
"MOBIITI:StopPlace:43754",,"ZI de la Lande",,44.92089,-0.451338,,,1,,,2,,
"MOBIITI:StopPlace:44604",,"Troussas",,45.383553,-0.881277,,,1,,,2,,
"MOBIITI:StopPlace:45932","","Dassault","",44.847908,-0.692068,,,1,,,0,,
"MOBIITI:StopPlace:44601",,"Le Luc",,45.193703,-1.067235,,,1,,,2,,
"MOBIITI:StopPlace:43757",,"Soupetard",,44.914093,-0.441704,,,1,,,2,,
"MOBIITI:StopPlace:44602",,"Cartignac",,45.20698,-1.076711,,,1,,,2,,
"MOBIITI:StopPlace:43756",,"Poumey",,44.90909,-0.441458,,,1,,,2,,
"MOBIITI:StopPlace:44607",,"Front de Mer",,45.378845,-1.153393,,,1,,,2,,
"MOBIITI:StopPlace:43759",,"Couvertaire",,44.916405,-0.446413,,,1,,,2,,
"MOBIITI:StopPlace:44608",,"Le Desertat",,45.34982,-1.057014,,,1,,,2,,
"MOBIITI:StopPlace:43758",,"Couquet",,44.914692,-0.443632,,,1,,,2,,
"MOBIITI:StopPlace:44605",,"Aire de Loisirs",,45.395145,-0.895201,,,1,,,2,,
"MOBIITI:StopPlace:44606",,"Av. de l'Europe",,45.377068,-1.143758,,,1,,,2,,
"MOBIITI:StopPlace:43751",,"Jean Videau",,44.919514,-0.439393,,,1,,,2,,
"MOBIITI:StopPlace:43750",,"Bourg",,44.917202,-0.428828,,,1,,,2,,
"MOBIITI:StopPlace:44600",,"Chem. de Crabot",,45.43553,-1.051832,,,1,,,2,,
"MOBIITI:StopPlace:43753",,"Les Graves",,44.915108,-0.416689,,,1,,,2,,
"MOBIITI:StopPlace:43752",,"L'Olivey",,44.915775,-0.420402,,,1,,,2,,
"MOBIITI:StopPlace:45929",,"Colette",,44.834824,-0.63624,,,1,,,0,,
"MOBIITI:StopPlace:44614",,"Coll. Notre Dame",,45.307972,-0.937673,,,1,,,2,,
"MOBIITI:StopPlace:43765","","Gare","",44.897465,-0.316444,,,1,,,2,,
"MOBIITI:StopPlace:44615",,"Conneau",,45.272934,-0.930018,,,1,,,2,,
"MOBIITI:StopPlace:44612",,"Office du Tourisme",,45.377766,-1.148467,,,1,,,2,,
"MOBIITI:StopPlace:43768",,"Coin",,44.895775,-0.332566,,,1,,,2,,
"MOBIITI:StopPlace:43767",,"Avenue de la Gare",,44.902355,-0.322422,,,1,,,2,,
"MOBIITI:StopPlace:44613",,"Ets Scolaires",,45.299595,-0.926171,,,1,,,2,,
"MOBIITI:StopPlace:44618",,"Les Marceaux",,45.295685,-0.89189,,,1,,,2,,
"MOBIITI:StopPlace:43769",,"La Ricodonne",,44.922855,-0.46504,,,1,,,2,,
"MOBIITI:StopPlace:44619",,"Plassan",,45.276382,-0.944805,,,1,,,2,,
"MOBIITI:StopPlace:44616",,"Gare TER",,45.30391,-0.945401,,,1,,,2,,
"MOBIITI:StopPlace:44617",,"Canquillac",,45.288082,-0.902542,,,1,,,2,,
"MOBIITI:StopPlace:43760",,"La Coupole",,44.9149,-0.42414,,,1,,,2,,
"MOBIITI:StopPlace:44610",,"Bourg",,45.356407,-1.060208,,,1,,,2,,
"MOBIITI:StopPlace:44611",,"Les Pigaux",,45.3183,-1.036501,,,1,,,2,,
"MOBIITI:StopPlace:44609",,"La Moulineyre",,45.36536,-1.086022,,,1,,,2,,
"MOBIITI:StopPlace:44625",,"Artiguillon",,45.27248,-0.886331,,,1,,,2,,
"MOBIITI:StopPlace:43777",,"Petit Bois",,44.896225,-0.394722,,,1,,,2,,
"MOBIITI:StopPlace:44626",,"Miqueu",,45.279724,-0.874063,,,1,,,2,,
"MOBIITI:StopPlace:43776",,"Stade",,44.90247,-0.379983,,,1,,,2,,
"MOBIITI:StopPlace:45954",,"Thales",,44.848824,-0.700358,,,1,,,0,,
"MOBIITI:StopPlace:44623",,"Les Payots",,45.36069,-1.078142,,,1,,,2,,
"MOBIITI:StopPlace:43779",,"Blouin",,44.900784,-0.487932,,,1,,,2,,
"MOBIITI:StopPlace:44624",,"Les Garrouils",,45.328613,-1.050839,,,1,,,2,,
"MOBIITI:StopPlace:43778",,"Bois Mazan",,44.895008,-0.37887,,,1,,,2,,
"MOBIITI:StopPlace:44629",,"Liard",,45.275955,-0.915084,,,1,,,2,,
"MOBIITI:StopPlace:44627",,"L'Hopital",,45.2982,-0.875975,,,1,,,2,,
"MOBIITI:StopPlace:44628",,"Lagune",,45.258247,-0.901572,,,1,,,2,,
"MOBIITI:StopPlace:43771",,"Le Ribet",,44.915085,-0.388871,,,1,,,2,,
"MOBIITI:StopPlace:43770",,"Pl. l'Ormeau",,44.88565,-0.398553,,,1,,,2,,
"MOBIITI:StopPlace:44621",,"Sarnac",,45.347607,-1.053175,,,1,,,2,,
"MOBIITI:StopPlace:43773",,"Le Bouey",,44.90632,-0.385928,,,1,,,2,,
"MOBIITI:StopPlace:43772",,"Quantin",,44.913277,-0.403974,,,1,,,2,,
"MOBIITI:StopPlace:45953",,"Aéroparc","av Dassault",44.85032,-0.693078,,,1,,,0,,
"MOBIITI:StopPlace:44622",,"Le Dehes",,45.33625,-1.053514,,,1,,,2,,
"MOBIITI:StopPlace:43775",,"Six Chemins",,44.9003,-0.375686,,,1,,,2,,
"MOBIITI:StopPlace:44620",,"Bourg",,45.289333,-0.865774,,,1,,,2,,
"MOBIITI:StopPlace:43774",,"Tasta",,44.905716,-0.371658,,,1,,,2,,
"MOBIITI:StopPlace:43425",,"Les Agrieres",,44.985874,-0.270152,,,1,,,2,,
"MOBIITI:StopPlace:44757",,"Saussac",,45.132816,-0.815217,,,1,,,2,,
"MOBIITI:StopPlace:43424",,"Bourg",,45.016663,-0.380247,,,1,,,2,,
"MOBIITI:StopPlace:44758",,"Bourg",,45.151356,-0.822355,,,1,,,2,,
"MOBIITI:StopPlace:43427",,"Beaumont",,44.985992,-0.259023,,,1,,,2,,
"MOBIITI:StopPlace:44755",,"Pelin",,45.03805,-0.739702,,,1,,,2,,
"MOBIITI:StopPlace:43426",,"Moustron",,44.975536,-0.257826,,,1,,,2,,
"MOBIITI:StopPlace:44756",,"Romefort",,45.026466,-0.770025,,,1,,,2,,
"MOBIITI:StopPlace:43429",,"Marze",,44.97228,-0.268565,,,1,,,2,,
"MOBIITI:StopPlace:43428",,"Bizot",,44.98839,-0.268657,,,1,,,2,,
"MOBIITI:StopPlace:44759",,"Hameau des Pins",,45.143158,-0.820089,,,1,,,2,,
"MOBIITI:StopPlace:44750",,"La Bergerie",,45.159763,-0.796456,,,1,,,2,,
"MOBIITI:StopPlace:44753",,"Pomaredes",,45.12403,-0.780568,,,1,,,2,,
"MOBIITI:StopPlace:43420","","Maison Neuve","",45.0384,-0.367673,,,1,,,2,,
"MOBIITI:StopPlace:44754",,"Rue des Mimosas",,45.03716,-0.758226,,,1,,,2,,
"MOBIITI:StopPlace:44751",,"Rue C. Chein",,45.15083,-0.827773,,,1,,,2,,
"MOBIITI:StopPlace:43422","","Les Nauves","",45.044147,-0.354667,,,1,,,2,,
"MOBIITI:StopPlace:44752",,"La Grave",,45.129818,-0.858171,,,1,,,2,,
"MOBIITI:StopPlace:43436",,"Caillon",,45.008347,-0.290016,,,1,,,2,,
"MOBIITI:StopPlace:44768",,"Lescapon",,45.349815,-0.988169,,,1,,,2,,
"MOBIITI:StopPlace:43435",,"Bourricaud",,44.996994,-0.260702,,,1,,,2,,
"MOBIITI:StopPlace:44769",,"Le Trale",,45.28241,-0.803548,,,1,,,2,,
"MOBIITI:StopPlace:43438",,"Bourg",,44.958084,-0.342357,,,1,,,2,,
"MOBIITI:StopPlace:44766",,"Le Petit Bourdieu",,45.0773,-0.78956,,,1,,,2,,
"MOBIITI:StopPlace:43437",,"Joffret",,44.98678,-0.263054,,,1,,,2,,
"MOBIITI:StopPlace:44767",,"Route Pey Martin 39",,45.099045,-0.787145,,,1,,,2,,
"MOBIITI:StopPlace:43439",,"Carrefour D246",,44.966488,-0.382915,,,1,,,2,,
"MOBIITI:StopPlace:44760",,"Barreau",,45.044765,-0.772249,,,1,,,2,,
"MOBIITI:StopPlace:44761",,"Le Pont",,45.04191,-0.767569,,,1,,,2,,
"MOBIITI:StopPlace:43430",,"La Bessede",,44.98098,-0.271648,,,1,,,2,,
"MOBIITI:StopPlace:43432",,"Bourg",,44.950974,-0.333784,,,1,,,2,,
"MOBIITI:StopPlace:44764",,"Pl. de Donissan",,45.09857,-0.782101,,,1,,,2,,
"MOBIITI:StopPlace:43431",,"Roque de Bas",,44.94668,-0.326488,,,1,,,2,,
"MOBIITI:StopPlace:44765",,"Semeillan",,45.06349,-0.802995,,,1,,,2,,
"MOBIITI:StopPlace:43434",,"Daudinet",,45.005123,-0.284018,,,1,,,2,,
"MOBIITI:StopPlace:44762",,"Chem. de Meyre",,45.030277,-0.766196,,,1,,,2,,
"MOBIITI:StopPlace:43433",,"Le Carrefour",,44.997868,-0.276789,,,1,,,2,,
"MOBIITI:StopPlace:44763",,"Cave Cooperative",,45.073303,-0.792572,,,1,,,2,,
"MOBIITI:StopPlace:43447",,"Mairie",,44.95875,-0.277681,,,1,,,2,,
"MOBIITI:StopPlace:44779",,"Le Port",,45.266014,-0.762824,,,1,,,2,,
"MOBIITI:StopPlace:43446",,"Ecole primaire",,44.96452,-0.401324,,,1,,,2,,
"MOBIITI:StopPlace:43449",,"Pac de Sol",,45.016052,-0.343428,,,1,,,2,,
"MOBIITI:StopPlace:44777",,"Le Paluda",,45.260567,-0.794647,,,1,,,2,,
"MOBIITI:StopPlace:43448",,"Gros Jean",,44.948807,-0.298128,,,1,,,2,,
"MOBIITI:StopPlace:44778",,"Hameau Gd Chene",,45.249226,-0.803425,,,1,,,2,,
"MOBIITI:StopPlace:44771",,"Cadourne",,45.303303,-0.787974,,,1,,,2,,
"MOBIITI:StopPlace:44772",,"Bourg",,45.2648,-0.771782,,,1,,,2,,
"MOBIITI:StopPlace:43441",,"Girard",,44.982037,-0.252411,,,1,,,2,,
"MOBIITI:StopPlace:43440",,"Mairie",,44.96669,-0.376096,,,1,,,2,,
"MOBIITI:StopPlace:44770",,"Les Ecoles",,45.28921,-0.790887,,,1,,,2,,
"MOBIITI:StopPlace:43443",,"La Barde",,44.993275,-0.252809,,,1,,,2,,
"MOBIITI:StopPlace:44775",,"Marbuzet",,45.240185,-0.770661,,,1,,,2,,
"MOBIITI:StopPlace:43442",,"L'Ilotte",,44.992336,-0.266763,,,1,,,2,,
"MOBIITI:StopPlace:44776",,"Lavilotte",,45.25174,-0.80631,,,1,,,2,,
"MOBIITI:StopPlace:43445",,"Cité Fontenelle",,44.96333,-0.406626,,,1,,,2,,
"MOBIITI:StopPlace:44773",,"Rte de Brame Hame",,45.246967,-0.791491,,,1,,,2,,
"MOBIITI:StopPlace:43444",,"Mayes",,44.96881,-0.37092,,,1,,,2,,
"MOBIITI:StopPlace:44774",,"Aillan",,45.258907,-0.802017,,,1,,,2,,
"MOBIITI:StopPlace:43458",,"Antioche",,45.036156,-0.335186,,,1,,,2,,
"MOBIITI:StopPlace:43457",,"Bourg",,44.93325,-0.308511,,,1,,,2,,
"MOBIITI:StopPlace:44307",,"Le Bois de l'Ermitage",,44.73042,-0.64146,,,1,,,2,,
"MOBIITI:StopPlace:46967","","Landegrand","",44.96044,-0.626127,,,1,,,2,,
"MOBIITI:StopPlace:44788",,"Le Port",,45.358967,-0.821857,,,1,,,2,,
"MOBIITI:StopPlace:43459",,"Eglise",,45.019997,-0.322698,,,1,,,2,,
"MOBIITI:StopPlace:44789",,"Bourg",,45.072197,-0.724119,,,1,,,2,,
"MOBIITI:StopPlace:44308",,"Allee du Courtillas",,44.731636,-0.654922,,,1,,,2,,
"MOBIITI:StopPlace:44309",,"Pieces de Choisy",,44.729748,-0.648575,,,1,,,2,,
"MOBIITI:StopPlace:43450",,"Bourg",,45.024235,-0.356776,,,1,,,2,,
"MOBIITI:StopPlace:44782",,"Stade",,45.263435,-0.77417,,,1,,,2,,
"MOBIITI:StopPlace:44783",,"St Corbian",,45.26782,-0.789392,,,1,,,2,,
"MOBIITI:StopPlace:43452",,"Monsieur Dubois",,45.03446,-0.342376,,,1,,,2,,
"MOBIITI:StopPlace:44780",,"Cos",,45.230556,-0.776871,,,1,,,2,,
"MOBIITI:StopPlace:43451",,"La Mouleyre",,44.94898,-0.276757,,,1,,,2,,
"MOBIITI:StopPlace:44781",,"Blanquet",,45.237022,-0.786471,,,1,,,2,,
"MOBIITI:StopPlace:43454",,"Bourg",,44.992718,-0.272524,,,1,,,2,,
"MOBIITI:StopPlace:44786",,"Leyssac Bourg",,45.244675,-0.788574,,,1,,,2,,
"MOBIITI:StopPlace:44302",,"Pres aux Clercs",,44.740234,-0.651277,,,1,,,2,,
"MOBIITI:StopPlace:43453",,"Andreau",,45.03491,-0.353671,,,1,,,2,,
"MOBIITI:StopPlace:44787",,"Rte du Bois de Brulle",,45.081917,-0.750494,,,1,,,2,,
"MOBIITI:StopPlace:43456",,"Ecoles",,44.93717,-0.314812,,,1,,,2,,
"MOBIITI:StopPlace:44784",,"Le Pez",,45.260494,-0.789298,,,1,,,2,,
"MOBIITI:StopPlace:44300",,"Clairiere aux Chevaux",,44.724632,-0.676685,,,1,,,2,,
"MOBIITI:StopPlace:43455",,"L'illôt",,44.97054,-0.382805,,,1,,,2,,
"MOBIITI:StopPlace:44785",,"Leyssac Ecole",,45.2418,-0.78655,,,1,,,2,,
"MOBIITI:StopPlace:44301",,"Av. Compostelle no227",,44.702984,-0.703886,,,1,,,2,,
"MOBIITI:StopPlace:44317",,"Le Basque",,44.79044,-0.432893,,,1,,,2,,
"MOBIITI:StopPlace:44318",,"La Lande",,44.783974,-0.436761,,,1,,,2,,
"MOBIITI:StopPlace:44799",,"Le Fournas",,45.1935,-0.801176,,,1,,,2,,
"MOBIITI:StopPlace:44315",,"Peyon",,44.674755,-0.670832,,,1,,,2,,
"MOBIITI:StopPlace:44316",,"Douence",,44.574547,-0.631839,,,1,,,2,,
"MOBIITI:StopPlace:44319",,"La Mouline",,44.799747,-0.432221,,,1,,,2,,
"MOBIITI:StopPlace:43461",,"Bourg",,45.01895,-0.324467,,,1,,,2,,
"MOBIITI:StopPlace:44793",,"Ecole",,45.203064,-0.835374,,,1,,,2,,
"MOBIITI:StopPlace:43460",,"Borlhe",,45.018665,-0.296964,,,1,,,2,,
"MOBIITI:StopPlace:44310",,"Cassini",,44.733257,-0.651333,,,1,,,2,,
"MOBIITI:StopPlace:44794",,"Desteau",,45.197266,-0.841507,,,1,,,2,,
"MOBIITI:StopPlace:43463",,"La Croix Rouge",,45.038815,-0.327494,,,1,,,2,,
"MOBIITI:StopPlace:44791",,"Guerin",,45.20282,-0.803862,,,1,,,2,,
"MOBIITI:StopPlace:43462",,"Grimard",,45.013042,-0.291978,,,1,,,2,,
"MOBIITI:StopPlace:44792",,"Glomeau",,45.194233,-0.843893,,,1,,,2,,
"MOBIITI:StopPlace:43465",,"Mendoce",,45.090546,-0.63916,,,1,,,2,,
"MOBIITI:StopPlace:44313",,"Jauge",,44.70077,-0.706062,,,1,,,2,,
"MOBIITI:StopPlace:44797",,"Stade",,45.198624,-0.833602,,,1,,,2,,
"MOBIITI:StopPlace:43464",,"Bafave",,45.0466,-0.318966,,,1,,,2,,
"MOBIITI:StopPlace:44314",,"Le Puch",,44.68374,-0.722464,,,1,,,2,,
"MOBIITI:StopPlace:44798",,"Lescargean",,45.20815,-0.81616,,,1,,,2,,
"MOBIITI:StopPlace:43467",,"Bourg",,44.954456,-0.468194,,,1,,,2,,
"MOBIITI:StopPlace:45642","","République","",44.834667,-0.579688,,,1,,,0,,
"MOBIITI:StopPlace:44311",,"Val de l'Arriga",,44.740395,-0.653438,,,1,,,2,,
"MOBIITI:StopPlace:44795",,"La Naude",,45.19415,-0.795737,,,1,,,2,,
"MOBIITI:StopPlace:43466",,"Roque de Thau",,45.080254,-0.636176,,,1,,,2,,
"MOBIITI:StopPlace:44312",,"Rejouit",,44.738747,-0.65589,,,1,,,2,,
"MOBIITI:StopPlace:46973",,"Peybois",,44.93996,-0.632813,,,1,,,0,,
"MOBIITI:StopPlace:44796",,"Junca",,45.20981,-0.812724,,,1,,,2,,
"MOBIITI:StopPlace:56307",,"POMEROL - Catusseau",,44.923466,-0.207964,,,1,,,2,,
"MOBIITI:StopPlace:44790",,"Eglise",,45.04111,-0.937354,,,1,,,2,,
"MOBIITI:StopPlace:44328",,"Dom. la Vernaie",,44.762615,-0.466765,,,1,,,2,,
"MOBIITI:StopPlace:43479",,"Croix de l'Avocat",,45.01203,-0.448987,,,1,,,2,,
"MOBIITI:StopPlace:44329",,"Baragne 2",,44.747383,-0.456518,,,1,,,2,,
"MOBIITI:StopPlace:44326",,"Montichamp",,44.769554,-0.47775,,,1,,,2,,
"MOBIITI:StopPlace:44327",,"Paguemaou",,44.772625,-0.471807,,,1,,,2,,
"MOBIITI:StopPlace:43472",,"Talbot",,45.051758,-0.592344,,,1,,,2,,
"MOBIITI:StopPlace:44320",,"Lotte",,44.764557,-0.478041,,,1,,,2,,
"MOBIITI:StopPlace:43471",,"La Croix de Millorit",,45.055943,-0.599882,,,1,,,2,,
"MOBIITI:StopPlace:44321",,"Chem. de Mugron",,44.760265,-0.456674,,,1,,,2,,
"MOBIITI:StopPlace:46981","","Montesquieu","",44.907627,-0.639218,,,1,,,0,,
"MOBIITI:StopPlace:43474",,"Le Telegraphe",,45.081406,-0.579447,,,1,,,2,,
"MOBIITI:StopPlace:45650","","Gambetta","",44.84181,-0.580105,,,1,,,0,,
"MOBIITI:StopPlace:43473",,"La Reuille",,45.053577,-0.603794,,,1,,,2,,
"MOBIITI:StopPlace:43476",,"Cablanc",,45.026627,-0.465305,,,1,,,2,,
"MOBIITI:StopPlace:44324",,"Paris",,44.75886,-0.418404,,,1,,,2,,
"MOBIITI:StopPlace:44325",,"Cimetiere",,44.764618,-0.482322,,,1,,,2,,
"MOBIITI:StopPlace:46502","","Capeyron","",44.85207,-0.645174,,,1,,,0,,
"MOBIITI:StopPlace:43475",,"Baillou",,45.09407,-0.581797,,,1,,,2,,
"MOBIITI:StopPlace:43478",,"Bourg",,45.01833,-0.463158,,,1,,,2,,
"MOBIITI:StopPlace:44322",,"Coll. C. Claudel",,44.786446,-0.493518,,,1,,,2,,
"MOBIITI:StopPlace:46985",,"Cantinolle",,44.892044,-0.667765,,,1,,,0,,
"MOBIITI:StopPlace:43477",,"Voisi",,45.014324,-0.469298,,,1,,,2,,
"MOBIITI:StopPlace:44323",,"Gros Chenes",,44.795868,-0.483018,,,1,,,2,,
"MOBIITI:StopPlace:44339",,"Chat. de Gourgues",,44.745262,-0.437937,,,1,,,2,,
"MOBIITI:StopPlace:44337",,"Le Caillou",,44.74812,-0.411583,,,1,,,2,,
"MOBIITI:StopPlace:45669",,"Anatole France",,44.76655,-0.580123,,,1,,,0,,
"MOBIITI:StopPlace:44338",,"Guillon",,44.75264,-0.415455,,,1,,,2,,
"MOBIITI:StopPlace:44331",,"Le Carpe 2",,44.763657,-0.405341,,,1,,,2,,
"MOBIITI:StopPlace:43483",,"Bel Air",,44.97245,-0.443149,,,1,,,2,,
"MOBIITI:StopPlace:43482",,"Bourg",,44.972153,-0.452984,,,1,,,2,,
"MOBIITI:StopPlace:44332",,"Chem. Muriel et Alain",,44.758278,-0.481337,,,1,,,2,,
"MOBIITI:StopPlace:43485",,"Chem. Peyrot",,45.00859,-0.473785,,,1,,,2,,
"MOBIITI:StopPlace:43484",,"Allee de Verdun",,44.989826,-0.449631,,,1,,,2,,
"MOBIITI:StopPlace:44330",,"Les Jardins de Thomas",,44.745224,-0.456415,,,1,,,2,,
"MOBIITI:StopPlace:44335",,"Val Rose",,44.791634,-0.516223,,,1,,,2,,
"MOBIITI:StopPlace:43487",,"Chem. de la Grave",,44.979294,-0.411537,,,1,,,2,,
"MOBIITI:StopPlace:44336",,"Arcins",,44.79807,-0.516842,,,1,,,2,,
"MOBIITI:StopPlace:43486",,"Les Planquettes",,44.97216,-0.412519,,,1,,,2,,
"MOBIITI:StopPlace:44333",,"Les Grands Horizons",,44.75609,-0.476702,,,1,,,2,,
"MOBIITI:StopPlace:43489",,"Halte Nautique",,45.011936,-0.527514,,,1,,,2,,
"MOBIITI:StopPlace:44334",,"Rue Rouches",,44.76648,-0.449774,,,1,,,2,,
"MOBIITI:StopPlace:43481",,"Rte de Bourg",,45.012978,-0.468588,,,1,,,2,,
"MOBIITI:StopPlace:43480",,"La Cote du Tertre",,45.01628,-0.464883,,,1,,,2,,
"MOBIITI:StopPlace:44348",,"Chabrot",,44.788174,-0.445636,,,1,,,2,,
"MOBIITI:StopPlace:44349",,"Av. de Bordeaux",,44.77803,-0.461932,,,1,,,2,,
"MOBIITI:StopPlace:44342",,"Fontainebleau",,44.744938,-0.41656,,,1,,,2,,
"MOBIITI:StopPlace:43494",,"Port Neuf",,45.005657,-0.480273,,,1,,,2,,
"MOBIITI:StopPlace:44343",,"Les Meneaux",,44.750774,-0.408803,,,1,,,2,,
"MOBIITI:StopPlace:43493",,"Chem. de Grave",,44.975666,-0.420677,,,1,,,2,,
"MOBIITI:StopPlace:44340",,"Rue A. Renoir",,44.74651,-0.42739,,,1,,,2,,
"MOBIITI:StopPlace:43496",,"La Cabeyre",,44.99329,-0.436556,,,1,,,2,,
"MOBIITI:StopPlace:44341",,"Censot",,44.760384,-0.416745,,,1,,,2,,
"MOBIITI:StopPlace:43495",,"Calonge",,44.9819,-0.431959,,,1,,,2,,
"MOBIITI:StopPlace:45677","","Sarcignan","",44.778328,-0.573185,,,1,,,0,,
"MOBIITI:StopPlace:44346",,"Versailles",,44.75756,-0.420904,,,1,,,2,,
"MOBIITI:StopPlace:43498",,"Peyrelebade",,45.000126,-0.464174,,,1,,,2,,
"MOBIITI:StopPlace:44347",,"Mons",,44.789726,-0.453819,,,1,,,2,,
"MOBIITI:StopPlace:43497",,"Rte Port Neuf",,45.005817,-0.480008,,,1,,,2,,
"MOBIITI:StopPlace:45675",,"Collège Chambéry",,44.756367,-0.584642,,,1,,,0,,
"MOBIITI:StopPlace:44344",,"Cran",,44.751217,-0.429505,,,1,,,2,,
"MOBIITI:StopPlace:44345",,"Les Meneaux Bourg",,44.752174,-0.40995,,,1,,,2,,
"MOBIITI:StopPlace:43499",,"Rte de Plagne",,44.9914,-0.464902,,,1,,,2,,
"MOBIITI:StopPlace:43492",,"Bourg",,45.034477,-0.47036,,,1,,,2,,
"MOBIITI:StopPlace:43491",,"Bourg",,45.015507,-0.533111,,,1,,,2,,
"MOBIITI:StopPlace:45209",,"Maison de Retraite",,44.74774,-0.655196,,,1,,,2,,
"MOBIITI:StopPlace:44359",,"St Ourens",,44.707172,-0.362385,,,1,,,2,,
"MOBIITI:StopPlace:44353",,"Pommarede 2",,44.707928,-0.39026,,,1,,,2,,
"MOBIITI:StopPlace:45200",,"Le Courneau",,44.76385,-0.669321,,,1,,,2,,
"MOBIITI:StopPlace:44354",,"Pommarede 1",,44.70952,-0.39279,,,1,,,2,,
"MOBIITI:StopPlace:45201",,"Mairie",,44.762238,-0.652313,,,1,,,2,,
"MOBIITI:StopPlace:44351",,"Stade",,44.692154,-0.333129,,,1,,,2,,
"MOBIITI:StopPlace:44352",,"Deyma",,44.69203,-0.327993,,,1,,,2,,
"MOBIITI:StopPlace:44357",,"Eglise Haut Langoiran",,44.70408,-0.378392,,,1,,,2,,
"MOBIITI:StopPlace:46536",,"Quatre Chemins",,44.832706,-0.647408,,,1,,,0,,
"MOBIITI:StopPlace:44358",,"Ste Catherine",,44.703987,-0.371205,,,1,,,2,,
"MOBIITI:StopPlace:44355",,"Chat. Gourran",,44.70863,-0.355077,,,1,,,2,,
"MOBIITI:StopPlace:45202",,"Allee des Bleuets",,44.763336,-0.657377,,,1,,,2,,
"MOBIITI:StopPlace:44356",,"Peybotte",,44.710587,-0.349262,,,1,,,2,,
"MOBIITI:StopPlace:44350",,"Le Bertaut",,44.7042,-0.369288,,,1,,,2,,
"MOBIITI:StopPlace:45219",,"Stade",,44.740932,-0.679874,,,1,,,2,,
"MOBIITI:StopPlace:45217",,"Av. Mlle de la Harpe",,44.74519,-0.682707,,,1,,,2,,
"MOBIITI:StopPlace:45218",,"Mano",,44.748764,-0.683392,,,1,,,2,,
"MOBIITI:StopPlace:44364",,"Coll. A. France",,44.630257,-0.30576,,,1,,,2,,
"MOBIITI:StopPlace:45211",,"Moutines",,44.7412,-0.660151,,,1,,,2,,
"MOBIITI:StopPlace:44365",,"Le Boudeur",,44.65391,-0.301719,,,1,,,2,,
"MOBIITI:StopPlace:46542",,"Clinique Mutualiste",,44.805286,-0.609567,,,1,,,0,,
"MOBIITI:StopPlace:44362",,"Le Vic",,44.67708,-0.323986,,,1,,,2,,
"MOBIITI:StopPlace:44363",,"Coll. J.J. Lataste",,44.63837,-0.314423,,,1,,,2,,
"MOBIITI:StopPlace:45210",,"Marticot",,44.753914,-0.685411,,,1,,,2,,
"MOBIITI:StopPlace:44368",,"Ancien Moulin",,44.67211,-0.27125,,,1,,,2,,
"MOBIITI:StopPlace:45215",,"Pres de Pinguet",,44.74206,-0.668352,,,1,,,2,,
"MOBIITI:StopPlace:44369",,"Bourg",,44.67812,-0.246343,,,1,,,2,,
"MOBIITI:StopPlace:45216",,"Gendarmerie",,44.741936,-0.684057,,,1,,,2,,
"MOBIITI:StopPlace:44366",,"Freylon",,44.6969,-0.23709,,,1,,,2,,
"MOBIITI:StopPlace:46545","","Chemin Long","",44.828823,-0.663831,,,1,,,0,,
"MOBIITI:StopPlace:44360",,"Ricouet",,44.676453,-0.339356,,,1,,,2,,
"MOBIITI:StopPlace:44361",,"Bibey",,44.685543,-0.320264,,,1,,,2,,
"MOBIITI:StopPlace:45228",,"Av. de Certes",,44.688293,-1.019725,,,1,,,2,,
"MOBIITI:StopPlace:44375",,"La Pradiasse Calvaire",,44.660294,-0.315138,,,1,,,2,,
"MOBIITI:StopPlace:45222",,"Le Mauret",,44.732155,-1.07918,,,1,,,2,,
"MOBIITI:StopPlace:44376",,"Bourg",,44.659073,-0.302269,,,1,,,2,,
"MOBIITI:StopPlace:46553",,"Unitec",,44.79654,-0.621576,,,1,,,0,,
"MOBIITI:StopPlace:45223",,"Rue du Port du Betey",,44.738037,-1.090642,,,1,,,2,,
"MOBIITI:StopPlace:44373",,"Bourg",,44.700775,-0.244056,,,1,,,2,,
"MOBIITI:StopPlace:45220",,"Pl. Bosquets de Pujau",,44.74084,-0.677112,,,1,,,2,,
"MOBIITI:StopPlace:46552","","Ausone","",44.80116,-0.616998,,,1,,,0,,
"MOBIITI:StopPlace:44374",,"Basse Roque",,44.655518,-0.304581,,,1,,,2,,
"MOBIITI:StopPlace:46551",,"Gutenberg",,44.787697,-0.645937,,,1,,,0,,
"MOBIITI:StopPlace:45221",,"Taudignon",,44.559956,-0.874422,,,1,,,2,,
"MOBIITI:StopPlace:44379",,"Bourg",,44.68644,-0.26519,,,1,,,2,,
"MOBIITI:StopPlace:45226",,"Mairie",,44.684315,-1.016481,,,1,,,2,,
"MOBIITI:StopPlace:45227",,"Cimetiere",,44.679,-1.009163,,,1,,,2,,
"MOBIITI:StopPlace:44377",,"Chat. d'Eau",,44.726738,-0.401956,,,1,,,2,,
"MOBIITI:StopPlace:45224",,"La Petite Poste",,44.734493,-1.083726,,,1,,,2,,
"MOBIITI:StopPlace:44378",,"La Lande",,44.737354,-0.413428,,,1,,,2,,
"MOBIITI:StopPlace:45225",,"Lillet",,44.591892,-0.898554,,,1,,,2,,
"MOBIITI:StopPlace:44371",,"Le Hourc",,44.704567,-0.248887,,,1,,,2,,
"MOBIITI:StopPlace:44372",,"Troubat",,44.696896,-0.25715,,,1,,,2,,
"MOBIITI:StopPlace:44370",,"Le Rouquey",,44.70346,-0.256116,,,1,,,2,,
"MOBIITI:StopPlace:45239",,"La Poste",,44.701694,-1.033576,,,1,,,2,,
"MOBIITI:StopPlace:44386",,"Groux",,44.704636,-0.291729,,,1,,,2,,
"MOBIITI:StopPlace:45233",,"Z.A.",,44.63804,-0.956728,,,1,,,2,,
"MOBIITI:StopPlace:44387",,"Dorlange",,44.68957,-0.293874,,,1,,,2,,
"MOBIITI:StopPlace:45234","","Gare TER","",44.6377,-0.965808,,,1,,,2,,
"MOBIITI:StopPlace:46564","","Hippodrome","",44.8743,-0.628768,,,1,,,0,,
"MOBIITI:StopPlace:44384",,"Au Bourdieu",,44.697853,-0.271867,,,1,,,2,,
"MOBIITI:StopPlace:45231",,"Caserne des Pompiers",,44.64626,-0.982868,,,1,,,2,,
"MOBIITI:StopPlace:44385",,"Barthalot",,44.698887,-0.266663,,,1,,,2,,
"MOBIITI:StopPlace:45232",,"Tagon",,44.656483,-0.987364,,,1,,,2,,
"MOBIITI:StopPlace:45237",,"Le Bois de Freurot",,44.61316,-0.946732,,,1,,,2,,
"MOBIITI:StopPlace:45238",,"Salle des Fetes",,44.606335,-0.939391,,,1,,,2,,
"MOBIITI:StopPlace:44388",,"Chardavoine",,44.69479,-0.275005,,,1,,,2,,
"MOBIITI:StopPlace:45235",,"Mairie",,44.64189,-0.976627,,,1,,,2,,
"MOBIITI:StopPlace:44389",,"Perron",,44.691708,-0.284424,,,1,,,2,,
"MOBIITI:StopPlace:45236",,"Peyot",,44.60204,-0.92385,,,1,,,2,,
"MOBIITI:StopPlace:44382",,"Les Gahets",,44.735058,-0.410672,,,1,,,2,,
"MOBIITI:StopPlace:44383",,"Mairie",,44.72082,-0.40577,,,1,,,2,,
"MOBIITI:StopPlace:45230",,"Av. de la Liberation",,44.605396,-0.933983,,,1,,,2,,
"MOBIITI:StopPlace:44380",,"Cimetiere",,44.679695,-0.2699,,,1,,,2,,
"MOBIITI:StopPlace:44381",,"Landonnet",,44.690903,-0.268377,,,1,,,2,,
"MOBIITI:StopPlace:45244",,"Croix de Taussat",,44.71777,-1.064236,,,1,,,2,,
"MOBIITI:StopPlace:44397",,"Av. du Bossut",,44.80875,-0.793977,,,1,,,2,,
"MOBIITI:StopPlace:44398",,"Le Las",,44.798977,-0.835993,,,1,,,2,,
"MOBIITI:StopPlace:45245",,"Le Braou",,44.703922,-1.039259,,,1,,,2,,
"MOBIITI:StopPlace:45242",,"Stade",,44.714306,-1.06006,,,1,,,2,,
"MOBIITI:StopPlace:44395",,"Matoque",,44.818726,-0.779021,,,1,,,2,,
"MOBIITI:StopPlace:45243",,"Taussat",,44.72407,-1.06818,,,1,,,2,,
"MOBIITI:StopPlace:44396",,"Cimetiere",,44.81386,-0.779864,,,1,,,2,,
"MOBIITI:StopPlace:45248",,"Ville",,44.977543,-1.074315,,,1,,,2,,
"MOBIITI:StopPlace:45249",,"Ocean",,44.893394,-1.211931,,,1,,,2,,
"MOBIITI:StopPlace:45246",,"Bourg",,44.87336,-1.092381,,,1,,,2,,
"MOBIITI:StopPlace:44399",,"Imp. des Bolets",,44.80281,-0.782652,,,1,,,2,,
"MOBIITI:StopPlace:45247",,"Centre Commercial",,44.976574,-1.066661,,,1,,,2,,
"MOBIITI:StopPlace:44390",,"Graveyres",,44.694595,-0.314081,,,1,,,2,,
"MOBIITI:StopPlace:45240",,"Cassy",,44.712254,-1.056492,,,1,,,2,,
"MOBIITI:StopPlace:44393",,"Av. des Chenes",,44.811646,-0.783972,,,1,,,2,,
"MOBIITI:StopPlace:45241",,"Le Roumingue",,44.705723,-1.043864,,,1,,,2,,
"MOBIITI:StopPlace:44394",,"Allee de Tillon",,44.802322,-0.787472,,,1,,,2,,
"MOBIITI:StopPlace:44391",,"Bertrand",,44.707733,-0.299522,,,1,,,2,,
"MOBIITI:StopPlace:44392",,"Ecole",,44.697674,-0.283129,,,1,,,2,,
"MOBIITI:StopPlace:45255",,"Bourg",,44.880043,-0.990182,,,1,,,2,,
"MOBIITI:StopPlace:45254",,"Avenue de Bordeaux",,44.875443,-1.083355,,,1,,,2,,
"MOBIITI:StopPlace:46107","","Victoire","Pasteur",44.83068,-0.572846,,,1,,,2,,
"MOBIITI:StopPlace:45251",,"Camp. La Grigne",,44.894386,-1.201474,,,1,,,2,,
"MOBIITI:StopPlace:45252",,"Ancienne Gare",,44.87543,-1.082832,,,1,,,2,,
"MOBIITI:StopPlace:46581","","Général de Gaulle","",44.874702,-0.619084,,,1,,,0,,
"MOBIITI:StopPlace:45250",,"Eglise",,44.87299,-1.09315,,,1,,,2,,
"MOBIITI:StopPlace:46112",,"Allende",,44.789005,-0.587081,,,1,,,0,,
"MOBIITI:StopPlace:45278",,"Quatre Moulins",,45.11407,-0.807553,,,1,,,2,,
"MOBIITI:StopPlace:45276",,"Le Poteau",,45.0076,-0.771762,,,1,,,2,,
"MOBIITI:StopPlace:46128",,"Peixotto","Tram B",44.807198,-0.592398,,,1,,,0,,
"MOBIITI:StopPlace:46127",,"Les 3 Tours",,44.787273,-0.604967,,,1,,,0,,
"MOBIITI:StopPlace:45279",,"Donissan",,45.104504,-0.803718,,,1,,,2,,
"MOBIITI:StopPlace:45270",,"Picot",,44.90417,-0.743806,,,1,,,2,,
"MOBIITI:StopPlace:45273",,"Fongrouse",,45.29602,-0.929082,,,1,,,2,,
"MOBIITI:StopPlace:45274",,"La Poste",,45.14594,-0.82139,,,1,,,2,,
"MOBIITI:StopPlace:45271",,"Longarisse",,44.961105,-1.136196,,,1,,,2,,
"MOBIITI:StopPlace:45272",,"La Grande Escoure",,44.96762,-1.143515,,,1,,,2,,
"MOBIITI:StopPlace:45167",,"Dune de l'Herbe",,44.69401,-1.235703,,,1,,,2,,
"MOBIITI:StopPlace:45168",,"Rd Pt de l'Herbe",,44.68628,-1.237507,,,1,,,2,,
"MOBIITI:StopPlace:45165",,"Le Four",,44.73135,-1.196192,,,1,,,2,,
"MOBIITI:StopPlace:45166",,"Av. de l'Ocean",,44.654945,-1.24976,,,1,,,2,,
"MOBIITI:StopPlace:46012",,"Palais des Congrès",,44.88932,-0.566947,,,1,,,0,,
"MOBIITI:StopPlace:45169",,"Rue de la Plage",,44.65628,-1.241939,,,1,,,2,,
"MOBIITI:StopPlace:45160",,"Les Reservoirs",,44.711285,-1.220939,,,1,,,2,,
"MOBIITI:StopPlace:45163",,"Allee des Dunes",,44.658978,-1.251955,,,1,,,2,,
"MOBIITI:StopPlace:45164",,"La Brise",,44.6396,-1.248794,,,1,,,2,,
"MOBIITI:StopPlace:45161",,"Rue du Semaphore",,44.62943,-1.249303,,,1,,,2,,
"MOBIITI:StopPlace:46493","","Avenue d'Eysines","",44.85992,-0.612749,,,1,,,2,,
"MOBIITI:StopPlace:45162",,"Lede des Oies",,44.7446,-1.181398,,,1,,,2,,
"MOBIITI:StopPlace:45178",,"Bld de l'Aerium",,44.76289,-1.132343,,,1,,,2,,
"MOBIITI:StopPlace:45179",,"Camp. les Ecureuils",,44.76081,-1.126609,,,1,,,2,,
"MOBIITI:StopPlace:45170",,"Rue des Fauvettes",,44.65191,-1.245357,,,1,,,2,,
"MOBIITI:StopPlace:46037","","Parc des Expositions","",44.894806,-0.566151,,,1,,,2,,
"MOBIITI:StopPlace:45187",,"Blagon",,44.783672,-0.934232,,,1,,,2,,
"MOBIITI:StopPlace:45181",,"Centre",,44.766457,-1.138929,,,1,,,2,,
"MOBIITI:StopPlace:45182",,"Paco",,44.758,-1.118913,,,1,,,2,,
"MOBIITI:StopPlace:45180",,"Le Perrey",,44.77586,-1.141698,,,1,,,2,,
"MOBIITI:StopPlace:45198",,"Rd Pt Granet",,44.768295,-0.659965,,,1,,,2,,
"MOBIITI:StopPlace:45199",,"Serignan",,44.760803,-0.675607,,,1,,,2,,
"MOBIITI:StopPlace:46049",,"Anatole France",,44.8463,-0.535782,,,1,,,0,,
"MOBIITI:StopPlace:46043",,"Collège L. Lenoir",,44.840508,-0.553321,,,1,,,0,,
"MOBIITI:StopPlace:45197",,"La Briquetterie",,44.775223,-0.663869,,,1,,,2,,
"MOBIITI:StopPlace:46058",,"La Tresne",,44.840782,-0.550315,,,1,,,0,,
"MOBIITI:StopPlace:47384",,"Les Pins","arrêt de descente",44.85665,-0.659285,,,1,,,0,,
"MOBIITI:StopPlace:46064","","Musée d'aquitaine","",44.834995,-0.574267,,,1,,,0,,
"MOBIITI:StopPlace:43800",,"Foyer Municipal",,44.891727,-0.502836,,,1,,,0,,
"MOBIITI:StopPlace:43803",,"Lyc. J. Monnet",,44.905666,-0.241518,,,1,,,2,,
"MOBIITI:StopPlace:43802",,"Chem. de Valentin 2",,44.872192,-0.468652,,,1,,,2,,
"MOBIITI:StopPlace:43804",,"Coll. M. Duras",,44.90272,-0.23608,,,1,,,2,,
"MOBIITI:StopPlace:46070",,"Boulevard Trarieux",,44.84159,-0.546417,,,1,,,0,,
"MOBIITI:StopPlace:43810",,"Rte de Lartigue",,44.876564,-0.396931,,,1,,,2,,
"MOBIITI:StopPlace:43812",,"Les Hauts de Beychac",,44.88198,-0.401958,,,1,,,2,,
"MOBIITI:StopPlace:43811",,"L'Intendant Nord",,44.878994,-0.383487,,,1,,,2,,
"MOBIITI:StopPlace:43814",,"La Barrade",,44.88129,-0.370148,,,1,,,2,,
"MOBIITI:StopPlace:43813",,"Zone du Lapin",,44.878414,-0.347982,,,1,,,2,,
"MOBIITI:StopPlace:43816",,"La Lande de Bertin",,44.875614,-0.37623,,,1,,,2,,
"MOBIITI:StopPlace:43815",,"Beychac",,44.874535,-0.396682,,,1,,,2,,
"MOBIITI:StopPlace:46088","","Porte de Bourgogne","",44.83649,-0.56593,,,1,,,2,,
"MOBIITI:StopPlace:43807",,"Coll. J. Auriac",,44.883064,-0.285242,,,1,,,2,,
"MOBIITI:StopPlace:43806",,"Grand Cazau",,44.88153,-0.343082,,,1,,,2,,
"MOBIITI:StopPlace:43809",,"Rte de l'Eglise",,44.87785,-0.400504,,,1,,,2,,
"MOBIITI:StopPlace:43808",,"Lot. Marty",,44.872295,-0.37526,,,1,,,2,,
"MOBIITI:StopPlace:43820",,"Fosses Longues",,44.870937,-0.350707,,,1,,,2,,
"MOBIITI:StopPlace:64760",,"Avenue Pasteur",,45.028137,-0.808541,,,1,,,2,,
"MOBIITI:StopPlace:43823",,"Imp des Sarments",,44.9758,-0.412301,,,1,,,2,,
"MOBIITI:StopPlace:43822",,"La Gare",,44.971718,-0.383624,,,1,,,2,,
"MOBIITI:StopPlace:64761",,"Lucassot",,44.824883,-0.684056,,,1,,,2,,
"MOBIITI:StopPlace:43825",,"Cabarieu",,44.985443,-0.407014,,,1,,,2,,
"MOBIITI:StopPlace:43824",,"Chem. de Granger",,45.00003,-0.435213,,,1,,,2,,
"MOBIITI:StopPlace:43827",,"Millardet",,44.997486,-0.433101,,,1,,,2,,
"MOBIITI:StopPlace:43826",,"La Virvee",,44.99318,-0.401201,,,1,,,2,,
"MOBIITI:StopPlace:46096","","Arena","",44.825855,-0.531748,,,1,,,0,,
"MOBIITI:StopPlace:43818",,"Boutin",,44.862263,-0.369193,,,1,,,2,,
"MOBIITI:StopPlace:43817",,"L'Orme",,44.86322,-0.373114,,,1,,,2,,
"MOBIITI:StopPlace:43819",,"Hurey",,44.869747,-0.355961,,,1,,,2,,
"MOBIITI:StopPlace:43832",,"Ecole S. Lacore",,44.99433,-0.436063,,,1,,,2,,
"MOBIITI:StopPlace:43831",,"Chem. du Rivet",,44.98515,-0.411279,,,1,,,2,,
"MOBIITI:StopPlace:43834",,"Clos St Martin",,45.00005,-0.433456,,,1,,,2,,
"MOBIITI:StopPlace:43833",,"La Rousse",,44.987938,-0.403796,,,1,,,2,,
"MOBIITI:StopPlace:43836",,"Fontboudeau",,44.998547,-0.437632,,,1,,,2,,
"MOBIITI:StopPlace:43835",,"Reden",,44.998276,-0.401928,,,1,,,2,,
"MOBIITI:StopPlace:43838",,"Patoche",,45.004883,-0.446917,,,1,,,2,,
"MOBIITI:StopPlace:43837",,"Intermarche",,44.995605,-0.44006,,,1,,,2,,
"MOBIITI:StopPlace:43830",,"Lycée Privé Ste Marie","STAM",44.986732,-0.437943,,,1,,,2,,
"MOBIITI:StopPlace:43829",,"Res. Paul Valery",,44.988697,-0.431447,,,1,,,2,,
"MOBIITI:StopPlace:43828",,"Bourg",,44.966763,-0.372571,,,1,,,2,,
"MOBIITI:StopPlace:43843",,"Le Gabaron",,44.954594,-0.345523,,,1,,,2,,
"MOBIITI:StopPlace:43842",,"Pont de Loze",,44.99246,-0.431446,,,1,,,2,,
"MOBIITI:StopPlace:43845",,"Bertineau",,44.94852,-0.158,,,1,,,2,,
"MOBIITI:StopPlace:43844",,"Gastineau",,44.98947,-0.423603,,,1,,,2,,
"MOBIITI:StopPlace:43846",,"La Croix de St Andre",,44.93991,-0.178763,,,1,,,2,,
"MOBIITI:StopPlace:43849",,"Bourg",,44.872147,-0.126897,,,1,,,2,,
"MOBIITI:StopPlace:43848",,"Fontmuree",,44.95297,-0.129347,,,1,,,2,,
"MOBIITI:StopPlace:43841",,"Terrefort",,44.989605,-0.456669,,,1,,,2,,
"MOBIITI:StopPlace:43840",,"Le Tasta",,45.003624,-0.443213,,,1,,,2,,
"MOBIITI:StopPlace:43839",,"Lot les Fougeres",,45.00421,-0.43785,,,1,,,2,,
"MOBIITI:StopPlace:43854",,"Bourg",,44.896072,-0.155554,,,1,,,2,,
"MOBIITI:StopPlace:44702",,"Les Huttes",,45.530727,-1.104715,,,1,,,2,,
"MOBIITI:StopPlace:43853",,"Villemaurine",,44.89641,-0.15052,,,1,,,2,,
"MOBIITI:StopPlace:44703",,"Rue des Mesanges",,45.546844,-1.059825,,,1,,,2,,
"MOBIITI:StopPlace:44700",,"Eglise",,45.543507,-1.063127,,,1,,,2,,
"MOBIITI:StopPlace:43856",,"Bourg",,44.880245,-0.061154,,,1,,,2,,
"MOBIITI:StopPlace:44701",,"Pointe de Grave",,45.56689,-1.065592,,,1,,,2,,
"MOBIITI:StopPlace:43855",,"Eglise",,44.878357,-0.06978,,,1,,,2,,
"MOBIITI:StopPlace:44706",,"Le Pastin",,45.557697,-1.067244,,,1,,,2,,
"MOBIITI:StopPlace:43857",,"Petit Bouquey",,44.860344,-0.128905,,,1,,,2,,
"MOBIITI:StopPlace:44707",,"Les Chenes Verts",,45.546875,-1.066636,,,1,,,2,,
"MOBIITI:StopPlace:44704",,"Bourg",,45.248684,-0.835968,,,1,,,2,,
"MOBIITI:StopPlace:43859","","Carre","",44.898052,-0.210007,,,1,,,0,,
"MOBIITI:StopPlace:44705",,"Lugagnac",,45.250553,-0.853014,,,1,,,2,,
"MOBIITI:StopPlace:43850",,"Bourg",,44.875443,-0.132434,,,1,,,2,,
"MOBIITI:StopPlace:43852",,"Bourg",,44.895775,-0.124448,,,1,,,2,,
"MOBIITI:StopPlace:43851",,"Bourg",,44.879547,-0.096066,,,1,,,2,,
"MOBIITI:StopPlace:43865",,"Les Bigaroux",,44.879673,-0.167939,,,1,,,2,,
"MOBIITI:StopPlace:44713",,"Libardac Benon",,45.07322,-0.813859,,,1,,,2,,
"MOBIITI:StopPlace:43864",,"Ecole Primaire",,44.877064,-0.190418,,,1,,,2,,
"MOBIITI:StopPlace:44714",,"Chat. Baudan",,45.08149,-0.805368,,,1,,,2,,
"MOBIITI:StopPlace:44711",,"Maison de Retraite",,45.03211,-0.798987,,,1,,,2,,
"MOBIITI:StopPlace:43867",,"Petit Bigaroux",,44.876034,-0.172161,,,1,,,2,,
"MOBIITI:StopPlace:43866",,"Pierrefitte",,44.887928,-0.201632,,,1,,,2,,
"MOBIITI:StopPlace:44712",,"Rue Audubert",,45.03615,-0.799293,,,1,,,2,,
"MOBIITI:StopPlace:43869",,"Ferrandat",,44.868153,-0.144701,,,1,,,2,,
"MOBIITI:StopPlace:44717",,"Bourg",,45.431232,-1.035149,,,1,,,2,,
"MOBIITI:StopPlace:43868",,"J. Marie",,44.890507,-0.204978,,,1,,,2,,
"MOBIITI:StopPlace:44718",,"Le Temple",,45.419945,-1.033481,,,1,,,2,,
"MOBIITI:StopPlace:44715",,"Le Tris",,45.081947,-0.795153,,,1,,,2,,
"MOBIITI:StopPlace:44716",,"Les Fougeres",,45.02741,-0.787618,,,1,,,2,,
"MOBIITI:StopPlace:43861",,"Bourg",,44.85558,-0.113054,,,1,,,2,,
"MOBIITI:StopPlace:43860",,"Laglaye",,44.855316,-0.09992,,,1,,,2,,
"MOBIITI:StopPlace:44710",,"Le Calvaire",,45.513306,-1.12096,,,1,,,2,,
"MOBIITI:StopPlace:43863",,"Croix Fourche",,44.869793,-0.187854,,,1,,,2,,
"MOBIITI:StopPlace:43862",,"Foyer communal",,44.87599,-0.190544,,,1,,,2,,
"MOBIITI:StopPlace:44708",,"La Briqueterie",,45.521168,-1.107381,,,1,,,2,,
"MOBIITI:StopPlace:44709",,"Rue de la Vissoule",,45.54212,-1.083042,,,1,,,2,,
"MOBIITI:StopPlace:43876",,"Micouleau",,44.84091,-0.145397,,,1,,,2,,
"MOBIITI:StopPlace:44724",,"Coudot",,45.11897,-0.730811,,,1,,,2,,
"MOBIITI:StopPlace:43875",,"Eglise",,44.84451,-0.16202,,,1,,,2,,
"MOBIITI:StopPlace:44725",,"Cussac le Vieux",,45.10119,-0.726527,,,1,,,2,,
"MOBIITI:StopPlace:43878",,"Bourg",,44.81365,-0.139736,,,1,,,2,,
"MOBIITI:StopPlace:44722",,"La Planquette",,45.399376,-1.036167,,,1,,,2,,
"MOBIITI:StopPlace:43877",,"Mairie",,44.84295,-0.14544,,,1,,,2,,
"MOBIITI:StopPlace:44723",,"Les Goujons",,45.391693,-1.037767,,,1,,,2,,
"MOBIITI:StopPlace:44728",,"Rue du Vieux Chene",,45.09798,-0.722504,,,1,,,2,,
"MOBIITI:StopPlace:44729",,"Poignet",,45.09068,-0.724498,,,1,,,2,,
"MOBIITI:StopPlace:43879",,"Lieutenant",,44.804012,-0.131607,,,1,,,2,,
"MOBIITI:StopPlace:44726",,"Rue Fontaine Ourdille",,45.09796,-0.733765,,,1,,,2,,
"MOBIITI:StopPlace:44727",,"Bourg",,45.095177,-0.720207,,,1,,,2,,
"MOBIITI:StopPlace:43870",,"Mezieres",,44.854534,-0.062518,,,1,,,2,,
"MOBIITI:StopPlace:43872",,"Les Demoiselles",,44.854767,-0.072854,,,1,,,2,,
"MOBIITI:StopPlace:44720",,"Camp. la Mariflaude",,45.18646,-1.040043,,,1,,,2,,
"MOBIITI:StopPlace:43871",,"Gory",,44.855026,-0.08596,,,1,,,2,,
"MOBIITI:StopPlace:44721",,"Gaudin",,45.40541,-1.035327,,,1,,,2,,
"MOBIITI:StopPlace:43874",,"Bourg",,44.853752,-0.042964,,,1,,,2,,
"MOBIITI:StopPlace:43873",,"Le Paradis",,44.854343,-0.050642,,,1,,,2,,
"MOBIITI:StopPlace:44719",,"Chateau d'Eau",,45.1875,-1.055552,,,1,,,2,,
"MOBIITI:StopPlace:43403",,"Pont du Mulet",,45.00696,-0.396334,,,1,,,2,,
"MOBIITI:StopPlace:43887",,"Le Moine",,44.822063,-0.217287,,,1,,,2,,
"MOBIITI:StopPlace:44735",,"St Trelody",,45.30326,-0.924469,,,1,,,2,,
"MOBIITI:StopPlace:43402",,"David",,44.98358,-0.30726,,,1,,,2,,
"MOBIITI:StopPlace:43886",,"Carteyron",,44.81982,-0.225493,,,1,,,2,,
"MOBIITI:StopPlace:44736",,"Le Pouyalet",,45.21499,-0.76463,,,1,,,2,,
"MOBIITI:StopPlace:43405",,"Crabit",,45.00801,-0.369019,,,1,,,2,,
"MOBIITI:StopPlace:43889",,"Cave Cooperative",,44.778316,-0.116702,,,1,,,2,,
"MOBIITI:StopPlace:44733",,"Hotel de Ville",,45.305386,-0.936082,,,1,,,2,,
"MOBIITI:StopPlace:43404",,"Brandet",,45.00015,-0.354862,,,1,,,2,,
"MOBIITI:StopPlace:44734",,"Benaben",,45.29715,-0.927625,,,1,,,2,,
"MOBIITI:StopPlace:43888",,"Lot. Les Acacias",,44.824356,-0.165841,,,1,,,2,,
"MOBIITI:StopPlace:43407",,"Bos Gramont",,44.95756,-0.352064,,,1,,,2,,
"MOBIITI:StopPlace:44739",,"Dauprat",,45.18417,-0.752593,,,1,,,2,,
"MOBIITI:StopPlace:43406",,"Beaucourt",,45.029278,-0.384094,,,1,,,2,,
"MOBIITI:StopPlace:43409",,"Lot. Duplesis",,45.014618,-0.378771,,,1,,,2,,
"MOBIITI:StopPlace:44737",,"Mousset",,45.22297,-0.764742,,,1,,,2,,
"MOBIITI:StopPlace:43408",,"Collège",,44.991875,-0.339646,,,1,,,2,,
"MOBIITI:StopPlace:44738",,"Padarnac",,45.210617,-0.760086,,,1,,,2,,
"MOBIITI:StopPlace:43881",,"Bernadas",,44.82368,-0.126536,,,1,,,2,,
"MOBIITI:StopPlace:43880",,"Moustey",,44.832985,-0.141276,,,1,,,2,,
"MOBIITI:StopPlace:43883",,"Pelisson",,44.81685,-0.136566,,,1,,,2,,
"MOBIITI:StopPlace:44731",,"Cite",,45.105946,-0.733184,,,1,,,2,,
"MOBIITI:StopPlace:43882",,"Lavagnac",,44.82015,-0.134931,,,1,,,2,,
"MOBIITI:StopPlace:44732",,"Bourg",,45.112247,-0.730398,,,1,,,2,,
"MOBIITI:StopPlace:43401",,"Meyney",,44.954147,-0.313754,,,1,,,2,,
"MOBIITI:StopPlace:43885",,"Gariga",,44.824482,-0.204331,,,1,,,2,,
"MOBIITI:StopPlace:43884",,"La Chapelle",,44.82797,-0.117083,,,1,,,2,,
"MOBIITI:StopPlace:43400",,"L'Escarderie",,44.96173,-0.315268,,,1,,,2,,
"MOBIITI:StopPlace:44730",,"Lalande",,45.109745,-0.752082,,,1,,,2,,
"MOBIITI:StopPlace:43414",,"Les Teychères",,44.994614,-0.362913,,,1,,,2,,
"MOBIITI:StopPlace:43898",,"Fontaine d'Albion",,44.840378,-0.401685,,,1,,,2,,
"MOBIITI:StopPlace:44746",,"Gare TER",,45.155846,-0.785397,,,1,,,2,,
"MOBIITI:StopPlace:43413",,"Eglise",,44.978455,-0.381451,,,1,,,2,,
"MOBIITI:StopPlace:43897",,"Les Quatre Ponts",,44.84509,-0.36363,,,1,,,2,,
"MOBIITI:StopPlace:46924",,"Hastignan Bourg",,44.897655,-0.745133,,,1,,,0,,
"MOBIITI:StopPlace:44747",,"L'Horthe",,45.151417,-0.813492,,,1,,,2,,
"MOBIITI:StopPlace:43416",,"Vincenot",,44.985153,-0.396304,,,1,,,2,,
"MOBIITI:StopPlace:44744",,"Artigues",,45.19238,-0.776119,,,1,,,2,,
"MOBIITI:StopPlace:43415",,"Biquet",,44.990967,-0.369829,,,1,,,2,,
"MOBIITI:StopPlace:43899",,"Pontac",,44.84177,-0.375499,,,1,,,2,,
"MOBIITI:StopPlace:44745",,"Bardouillan",,45.12456,-0.811703,,,1,,,2,,
"MOBIITI:StopPlace:43418",,"Le Puy",,44.987324,-0.382094,,,1,,,2,,
"MOBIITI:StopPlace:43417",,"Boisset",,44.989044,-0.388924,,,1,,,2,,
"MOBIITI:StopPlace:44748",,"Sieujean",,45.15764,-0.806378,,,1,,,2,,
"MOBIITI:StopPlace:44749",,"Saussac 21bis",,45.13362,-0.808327,,,1,,,2,,
"MOBIITI:StopPlace:43419","","Michelle","",45.03781,-0.37376,,,1,,,2,,
"MOBIITI:StopPlace:43890",,"Cimetiere",,44.874016,-0.190441,,,1,,,2,,
"MOBIITI:StopPlace:43892",,"Le Port",,44.82712,-0.158057,,,1,,,2,,
"MOBIITI:StopPlace:43891",,"Bregnet",,44.853413,-0.180617,,,1,,,2,,
"MOBIITI:StopPlace:43894",,"La Poste",,44.82873,-0.185287,,,1,,,2,,
"MOBIITI:StopPlace:43410",,"Parzon",,44.955803,-0.409812,,,1,,,2,,
"MOBIITI:StopPlace:44742",,"Cite Scolaire",,45.193615,-0.749123,,,1,,,2,,
"MOBIITI:StopPlace:44743",,"Grand Puy",,45.19143,-0.770195,,,1,,,2,,
"MOBIITI:StopPlace:43412",,"Salle des fêtes",,44.98176,-0.378038,,,1,,,2,,
"MOBIITI:StopPlace:43896",,"Salomon",,44.842064,-0.410285,,,1,,,2,,
"MOBIITI:StopPlace:44740",,"St Lambert",,45.179264,-0.75204,,,1,,,2,,
"MOBIITI:StopPlace:43411",,"Bourg",,44.95159,-0.412241,,,1,,,2,,
"MOBIITI:StopPlace:43895",,"Bourg",,44.82917,-0.187262,,,1,,,2,,
"MOBIITI:StopPlace:44741",,"Coll. P. de Belleyme",,45.202244,-0.75043,,,1,,,2,,
"MOBIITI:StopPlace:44878",,"La Gruppe",,45.01333,-0.416217,,,1,,,2,,
"MOBIITI:StopPlace:43546",,"Chasserat",,45.18128,-0.582874,,,1,,,2,,
"MOBIITI:StopPlace:43545",,"Rte de Niaud",,45.02719,-0.452692,,,1,,,2,,
"MOBIITI:StopPlace:45723",,"André Ricard",,44.859627,-0.539774,,,1,,,0,,
"MOBIITI:StopPlace:44876",,"Les Renauds",,45.274506,-0.594807,,,1,,,2,,
"MOBIITI:StopPlace:43548",,"Bourg",,45.185356,-0.581653,,,1,,,2,,
"MOBIITI:StopPlace:45724","","La Cité du Vin","",44.860332,-0.554205,,,1,,,0,,
"MOBIITI:StopPlace:44877","","Gare TER","",45.438786,-0.441508,,,1,,,2,,
"MOBIITI:StopPlace:43547",,"Ganache",,45.19362,-0.596344,,,1,,,2,,
"MOBIITI:StopPlace:45729",,"La Gardette - Bassens - Carbon-Blanc",,44.88813,-0.517324,,,1,,,0,,
"MOBIITI:StopPlace:43549",,"La Croix",,45.185997,-0.585391,,,1,,,2,,
"MOBIITI:StopPlace:44870",,"Les Michenauds",,45.281284,-0.600121,,,1,,,2,,
"MOBIITI:StopPlace:44871",,"Rue R. Bourda",,45.29029,-0.60734,,,1,,,2,,
"MOBIITI:StopPlace:43540",,"Coll. Val de Saye",,45.138874,-0.409756,,,1,,,2,,
"MOBIITI:StopPlace:44874",,"Rue des Ecoles",,45.37168,-0.571278,,,1,,,2,,
"MOBIITI:StopPlace:43542",,"Gadonne",,45.1683,-0.571617,,,1,,,2,,
"MOBIITI:StopPlace:44875",,"Champ de Foire",,45.445442,-0.43863,,,1,,,2,,
"MOBIITI:StopPlace:43541",,"La Botte",,45.16854,-0.576927,,,1,,,2,,
"MOBIITI:StopPlace:44872",,"Bourg",,45.267216,-0.560331,,,1,,,2,,
"MOBIITI:StopPlace:43544",,"Bourg",,45.17708,-0.564366,,,1,,,2,,
"MOBIITI:StopPlace:45720","","Lajaunie","",44.85701,-0.547708,,,1,,,0,,
"MOBIITI:StopPlace:44873",,"Bel Ormeau",,45.19631,-0.593901,,,1,,,2,,
"MOBIITI:StopPlace:43543",,"Thibaud",,45.17031,-0.567824,,,1,,,2,,
"MOBIITI:StopPlace:43557",,"Grand Thibaud",,45.04282,-0.466139,,,1,,,2,,
"MOBIITI:StopPlace:44889",,"Rue des Chenes",,44.87946,-0.41447,,,1,,,2,,
"MOBIITI:StopPlace:44405",,"Allee des Gravette",,44.801525,-0.83235,,,1,,,2,,
"MOBIITI:StopPlace:43556",,"Prantigarde",,45.0361,-0.460614,,,1,,,2,,
"MOBIITI:StopPlace:44406",,"Allee de Saussets",,44.80129,-0.838822,,,1,,,2,,
"MOBIITI:StopPlace:43559",,"Magrigne",,45.05243,-0.474074,,,1,,,2,,
"MOBIITI:StopPlace:44887",,"Av. de Verdun",,44.878902,-0.427351,,,1,,,2,,
"MOBIITI:StopPlace:44403",,"Allee du Mayne",,44.809673,-0.757833,,,1,,,2,,
"MOBIITI:StopPlace:44888",,"Rivasseau",,44.86517,-0.454145,,,1,,,2,,
"MOBIITI:StopPlace:44404",,"Caserne Pompiers",,44.810986,-0.778067,,,1,,,2,,
"MOBIITI:StopPlace:43558",,"Imp Chapon Roti",,45.03343,-0.458473,,,1,,,2,,
"MOBIITI:StopPlace:44407",,"Les Deux Poteaux",,44.81375,-0.726788,,,1,,,2,,
"MOBIITI:StopPlace:45739",,"Lormont Bas","A. Briand",44.8771,-0.534484,,,1,,,0,,
"MOBIITI:StopPlace:44408",,"Coll. Bourran",,44.83768,-0.635313,,,1,,,2,,
"MOBIITI:StopPlace:44881",,"Bourg de Salignac",,45.016552,-0.380423,,,1,,,2,,
"MOBIITI:StopPlace:44882",,"Lauduc",,44.864662,-0.459854,,,1,,,2,,
"MOBIITI:StopPlace:43551",,"Cave Cooperative",,45.02721,-0.453462,,,1,,,2,,
"MOBIITI:StopPlace:44880",,"Ecoles d'Aubie",,45.019295,-0.404834,,,1,,,2,,
"MOBIITI:StopPlace:43550",,"Les Rousseaux",,45.172146,-0.586587,,,1,,,2,,
"MOBIITI:StopPlace:44885",,"Av. du Perigord",,44.865475,-0.472301,,,1,,,2,,
"MOBIITI:StopPlace:44401",,"Rue de la Peloue",,44.80832,-0.787068,,,1,,,2,,
"MOBIITI:StopPlace:43553",,"Brillouet",,45.13415,-0.534884,,,1,,,2,,
"MOBIITI:StopPlace:44886",,"Rue de la Chaise",,44.87851,-0.424176,,,1,,,2,,
"MOBIITI:StopPlace:44402",,"Clairiere St Jean",,44.807106,-0.793822,,,1,,,2,,
"MOBIITI:StopPlace:43552",,"Montizeau",,45.13526,-0.555739,,,1,,,2,,
"MOBIITI:StopPlace:43555",,"Le Ripassou",,45.126556,-0.611671,,,1,,,2,,
"MOBIITI:StopPlace:44884",,"Le Flaman",,44.867397,-0.471104,,,1,,,2,,
"MOBIITI:StopPlace:43554",,"Gautret",,45.13545,-0.544052,,,1,,,2,,
"MOBIITI:StopPlace:44400",,"L'Ombriere",,44.794334,-0.862353,,,1,,,2,,
"MOBIITI:StopPlace:43568",,"La Garosse",,45.00341,-0.43799,,,1,,,2,,
"MOBIITI:StopPlace:44416",,"Allee de Barlan",,44.80898,-0.766515,,,1,,,2,,
"MOBIITI:StopPlace:44417",,"Rue Dauphine",,44.81271,-0.744967,,,1,,,2,,
"MOBIITI:StopPlace:43567",,"Mairie",,44.994663,-0.446562,,,1,,,2,,
"MOBIITI:StopPlace:44898",,"Eglise",,44.882107,-0.428934,,,1,,,2,,
"MOBIITI:StopPlace:44414",,"Mairie",,44.811367,-0.781704,,,1,,,2,,
"MOBIITI:StopPlace:44899",,"Route d'Yvrac",,44.87907,-0.444163,,,1,,,2,,
"MOBIITI:StopPlace:44415",,"Av. de Boulac",,44.81071,-0.752847,,,1,,,2,,
"MOBIITI:StopPlace:43569",,"Galacre",,45.14664,-0.562351,,,1,,,2,,
"MOBIITI:StopPlace:44418",,"Chem. de la Rue",,44.92483,-0.832801,,,1,,,2,,
"MOBIITI:StopPlace:44419",,"Bourg",,44.937935,-0.828004,,,1,,,2,,
"MOBIITI:StopPlace:43560",,"Ch Pont  Rivier",,45.04803,-0.470481,,,1,,,2,,
"MOBIITI:StopPlace:44892",,"Av. La Chapelle",,44.87805,-0.451227,,,1,,,2,,
"MOBIITI:StopPlace:44893",,"Cimetiere",,44.866375,-0.490332,,,1,,,2,,
"MOBIITI:StopPlace:43562",,"Les Coureaux",,45.082527,-0.463928,,,1,,,2,,
"MOBIITI:StopPlace:44890",,"Lalande",,44.872223,-0.43143,,,1,,,2,,
"MOBIITI:StopPlace:43561",,"St-Leger",,45.076557,-0.461954,,,1,,,2,,
"MOBIITI:StopPlace:44891",,"La Cle des Champs",,44.87897,-0.457842,,,1,,,2,,
"MOBIITI:StopPlace:44896",,"Allee des Oiseaux",,44.878387,-0.418345,,,1,,,2,,
"MOBIITI:StopPlace:44412",,"College",,44.805836,-0.805811,,,1,,,2,,
"MOBIITI:StopPlace:43564",,"Cite Lamothe",,44.991447,-0.444331,,,1,,,2,,
"MOBIITI:StopPlace:43563",,"Le Grand Village",,45.065155,-0.466404,,,1,,,2,,
"MOBIITI:StopPlace:44897",,"La Chaise",,44.87903,-0.426683,,,1,,,2,,
"MOBIITI:StopPlace:44413",,"Saldou",,44.81377,-0.729776,,,1,,,2,,
"MOBIITI:StopPlace:43566",,"Quatre Chemins",,44.99967,-0.447542,,,1,,,2,,
"MOBIITI:StopPlace:44410",,"Allee des Abeilles",,44.800804,-0.786067,,,1,,,2,,
"MOBIITI:StopPlace:43565",,"Lyc. P. Cousteau",,44.989826,-0.449631,,,1,,,2,,
"MOBIITI:StopPlace:44411",,"Av. Bordeaux 3844",,44.81404,-0.734335,,,1,,,2,,
"MOBIITI:StopPlace:56407","","LIBOURNE - Cours des Girondins","",44.91128,-0.243364,,,1,,,0,,
"MOBIITI:StopPlace:43579",,"Beneteau",,45.139217,-0.466698,,,1,,,2,,
"MOBIITI:StopPlace:44427",,"Salle des Fetes",,44.920864,-0.98761,,,1,,,2,,
"MOBIITI:StopPlace:44428",,"Le Moutchic",,45.00253,-1.135162,,,1,,,2,,
"MOBIITI:StopPlace:43578",,"Maison de la CDC",,45.142727,-0.443124,,,1,,,2,,
"MOBIITI:StopPlace:44429",,"Chem. des Bainasses",,45.0043,-1.127438,,,1,,,2,,
"MOBIITI:StopPlace:43571",,"Bourdillas",,45.15618,-0.561769,,,1,,,2,,
"MOBIITI:StopPlace:43570",,"Berthenon",,45.13652,-0.564389,,,1,,,2,,
"MOBIITI:StopPlace:44420",,"Eglise",,44.936634,-0.829986,,,1,,,2,,
"MOBIITI:StopPlace:43573",,"Bourg",,45.17975,-0.549301,,,1,,,2,,
"MOBIITI:StopPlace:43572",,"Les Drouillards",,45.16048,-0.556746,,,1,,,2,,
"MOBIITI:StopPlace:43575",,"Bourg de St Antoine",,45.017925,-0.425162,,,1,,,2,,
"MOBIITI:StopPlace:44423",,"Sautuges",,44.877506,-0.935898,,,1,,,2,,
"MOBIITI:StopPlace:43574",,"Bret",,45.171654,-0.54966,,,1,,,2,,
"MOBIITI:StopPlace:44424",,"Groupe Scolaire",,44.87849,-0.981446,,,1,,,2,,
"MOBIITI:StopPlace:43577",,"Peujais",,45.0655,-0.485093,,,1,,,2,,
"MOBIITI:StopPlace:44421",,"Bourg",,44.96578,-0.885348,,,1,,,2,,
"MOBIITI:StopPlace:43576",,"Le Poteau",,45.10159,-0.539746,,,1,,,2,,
"MOBIITI:StopPlace:46617",,"Auriol",,44.840736,-0.684808,,,1,,,2,,
"MOBIITI:StopPlace:44438",,"Rue F. Mauriac",,44.944996,-0.689284,,,1,,,2,,
"MOBIITI:StopPlace:44439",,"Genissan",,44.954933,-0.67531,,,1,,,2,,
"MOBIITI:StopPlace:43589",,"St Urbain",,45.094257,-0.480781,,,1,,,2,,
"MOBIITI:StopPlace:44436",,"Cosec",,44.979946,-1.074546,,,1,,,2,,
"MOBIITI:StopPlace:44437",,"Louens",,44.944897,-0.691324,,,1,,,2,,
"MOBIITI:StopPlace:46614",,"Diesel",,44.836872,-0.686951,,,1,,,0,,
"MOBIITI:StopPlace:64043",,"De Lattre de Tassigny",,44.912666,-0.247435,,,1,,,2,,
"MOBIITI:StopPlace:64044",,"Pl. des Deux Villes",,44.864407,-0.519311,,,1,,,2,,
"MOBIITI:StopPlace:44430",,"Ocean",,45.001194,-1.195874,,,1,,,2,,
"MOBIITI:StopPlace:43582",,"Stade",,45.134983,-0.451269,,,1,,,2,,
"MOBIITI:StopPlace:44431",,"Marie Curie",,45.00253,-1.186306,,,1,,,2,,
"MOBIITI:StopPlace:43581",,"Eglise",,45.139057,-0.448014,,,1,,,2,,
"MOBIITI:StopPlace:43584",,"Bourg",,45.130505,-0.508209,,,1,,,2,,
"MOBIITI:StopPlace:43583",,"L'Ombriere",,45.137238,-0.484298,,,1,,,2,,
"MOBIITI:StopPlace:44434",,"Pitrot",,45.00771,-1.112822,,,1,,,2,,
"MOBIITI:StopPlace:43586",,"Le Pas de Bourg",,45.107555,-0.462034,,,1,,,2,,
"MOBIITI:StopPlace:44435",,"Le Huga",,45.005665,-1.170498,,,1,,,2,,
"MOBIITI:StopPlace:43585",,"La Borderie",,45.127075,-0.456822,,,1,,,2,,
"MOBIITI:StopPlace:43588",,"Mairie",,45.11665,-0.402902,,,1,,,2,,
"MOBIITI:StopPlace:44432",,"La Cousteyre",,44.988075,-1.082793,,,1,,,2,,
"MOBIITI:StopPlace:45763",,"Collège A. Mauguin",,44.772762,-0.596766,,,1,,,0,,
"MOBIITI:StopPlace:43587",,"Le Pontet",,45.189,-0.603083,,,1,,,2,,
"MOBIITI:StopPlace:44433",,"Marina Talaris",,44.9964,-1.088024,,,1,,,2,,
"MOBIITI:StopPlace:43580",,"Pl. de la Liberation",,45.140415,-0.447282,,,1,,,2,,
"MOBIITI:StopPlace:46627","","Collège F. Mauriac","",44.895496,-0.709661,,,1,,,0,,
"MOBIITI:StopPlace:45778",,"Tauzin",,44.821217,-0.601938,,,1,,,0,,
"MOBIITI:StopPlace:43593",,"Le Fassier",,45.087868,-0.516012,,,1,,,2,,
"MOBIITI:StopPlace:45772","","Avenue de l'Université","",44.801266,-0.594639,,,1,,,0,,
"MOBIITI:StopPlace:44441",,"Les Airials",,44.946175,-0.655031,,,1,,,2,,
"MOBIITI:StopPlace:44442",,"Mairie",,44.955406,-0.670747,,,1,,,2,,
"MOBIITI:StopPlace:43592",,"Bourg",,45.081608,-0.492325,,,1,,,2,,
"MOBIITI:StopPlace:43595",,"Av. Haussman",,45.13179,-0.658477,,,1,,,2,,
"MOBIITI:StopPlace:43594",,"Hotel de Ville",,45.1272,-0.663199,,,1,,,2,,
"MOBIITI:StopPlace:45771",,"Charles Perrens",,44.82355,-0.600285,,,1,,,0,,
"MOBIITI:StopPlace:44440",,"Senejac",,44.962715,-0.688876,,,1,,,2,,
"MOBIITI:StopPlace:43597",,"Mairie",,45.028072,-0.440994,,,1,,,2,,
"MOBIITI:StopPlace:44445",,"Rue Cazeau Vieil",,44.993855,-0.693367,,,1,,,2,,
"MOBIITI:StopPlace:43596",,"Ecole",,45.0686,-0.380842,,,1,,,2,,
"MOBIITI:StopPlace:45777","","Lycée Hôtelier","",44.795654,-0.592404,,,1,,,0,,
"MOBIITI:StopPlace:44446",,"Garil Senejac",,44.960705,-0.691438,,,1,,,2,,
"MOBIITI:StopPlace:43599",,"Bourg",,45.030285,-0.441449,,,1,,,2,,
"MOBIITI:StopPlace:44443",,"Lyc. J. Duperier",,44.896088,-0.705663,,,1,,,2,,
"MOBIITI:StopPlace:43598",,"La Clie",,45.019676,-0.431197,,,1,,,2,,
"MOBIITI:StopPlace:44444",,"Mairie",,44.998665,-0.688482,,,1,,,2,,
"MOBIITI:StopPlace:43591",,"La Croix Blanche",,45.113037,-0.577206,,,1,,,2,,
"MOBIITI:StopPlace:43590",,"Gravier",,45.077747,-0.499962,,,1,,,2,,
"MOBIITI:StopPlace:45789","","Lycée Kastler","",44.801643,-0.597656,,,1,,,0,,
"MOBIITI:StopPlace:44458",,"Le Pontet",,44.9491,-0.685825,,,1,,,2,,
"MOBIITI:StopPlace:44459",,"Auquin",,44.952644,-0.665051,,,1,,,2,,
"MOBIITI:StopPlace:45783","","Arts & Métiers","",44.805202,-0.600521,,,1,,,2,,
"MOBIITI:StopPlace:44452",,"Chem. de l'Eau",,44.948196,-0.632784,,,1,,,2,,
"MOBIITI:StopPlace:44453",,"Le Bois de Luget 2",,44.936974,-0.703317,,,1,,,2,,
"MOBIITI:StopPlace:44451",,"Marlene",,44.95248,-0.685902,,,1,,,2,,
"MOBIITI:StopPlace:45787","","Bordeaux Carreire","",44.826588,-0.600742,,,1,,,0,,
"MOBIITI:StopPlace:44456",,"Rosa Bonheur",,44.947594,-0.643598,,,1,,,2,,
"MOBIITI:StopPlace:46634",,"Avenue de Braude",,44.91372,-0.668766,,,1,,,2,,
"MOBIITI:StopPlace:44457",,"Scierie",,44.957726,-0.706515,,,1,,,2,,
"MOBIITI:StopPlace:45785","","Réservoir Lavardens","",44.818233,-0.6025,,,1,,,0,,
"MOBIITI:StopPlace:44454",,"Gendarmerie",,45.025276,-0.792213,,,1,,,2,,
"MOBIITI:StopPlace:44455",,"Bourg",,45.027172,-0.798074,,,1,,,2,,
"MOBIITI:StopPlace:46632","","La Renney","",44.91173,-0.624894,,,1,,,0,,
"MOBIITI:StopPlace:45319",,"Bages",,45.190746,-0.749475,,,1,,,2,,
"MOBIITI:StopPlace:44463",,"Le Bois de Luget 1",,44.932762,-0.698057,,,1,,,2,,
"MOBIITI:StopPlace:44464",,"Bourg",,45.034023,-0.755659,,,1,,,2,,
"MOBIITI:StopPlace:46641","","Lycée du Bâtiment","",44.911457,-0.619288,,,1,,,0,,
"MOBIITI:StopPlace:44461",,"Beaulieu",,44.959404,-0.709677,,,1,,,2,,
"MOBIITI:StopPlace:44467",,"Le Comte",,44.98387,-0.703972,,,1,,,2,,
"MOBIITI:StopPlace:44465",,"Allee de Segur",,44.96379,-0.715241,,,1,,,2,,
"MOBIITI:StopPlace:44466",,"Coll. Panchon",,44.990253,-0.69486,,,1,,,2,,
"MOBIITI:StopPlace:46643","","Ford","",44.911026,-0.60764,,,1,,,0,,
"MOBIITI:StopPlace:44460",,"Pont Bernet",,44.954613,-0.703598,,,1,,,2,,
"MOBIITI:StopPlace:45327",,"La Mouline",,45.1567,-0.738934,,,1,,,2,,
"MOBIITI:StopPlace:45328",,"Le Bourdieu",,45.145424,-0.736171,,,1,,,2,,
"MOBIITI:StopPlace:44474",,"Le Chateau",,45.04047,-0.674185,,,1,,,2,,
"MOBIITI:StopPlace:45321","","Gare TER","",45.203762,-0.754649,,,1,,,2,,
"MOBIITI:StopPlace:44475",,"Margaux Bourg",,45.043346,-0.677942,,,1,,,2,,
"MOBIITI:StopPlace:45322",,"Hotel de Ville",,45.199753,-0.745947,,,1,,,2,,
"MOBIITI:StopPlace:44472",,"Cantenac Bourg",,45.028545,-0.653622,,,1,,,2,,
"MOBIITI:StopPlace:44473",,"Issan",,45.03522,-0.668291,,,1,,,2,,
"MOBIITI:StopPlace:45320",,"Pl. de la Liberte",,45.196335,-0.749217,,,1,,,2,,
"MOBIITI:StopPlace:44478",,"Le Poujeau",,44.948845,-0.630587,,,1,,,2,,
"MOBIITI:StopPlace:46655","","Caychac Bourg","",44.929916,-0.634758,,,1,,,0,,
"MOBIITI:StopPlace:44476",,"Centre Commercial",,44.95604,-0.628765,,,1,,,2,,
"MOBIITI:StopPlace:45323",,"ESAT Villambis",,45.216263,-0.853707,,,1,,,2,,
"MOBIITI:StopPlace:44477",,"La Begorce",,45.04816,-0.690519,,,1,,,2,,
"MOBIITI:StopPlace:44470",,"Chambres Neuves",,44.974884,-0.624153,,,1,,,2,,
"MOBIITI:StopPlace:44009",,"Bourg",,44.796917,-0.427798,,,1,,,2,,
"MOBIITI:StopPlace:44007",,"Escorgeboeuf",,44.804585,-0.439952,,,1,,,2,,
"MOBIITI:StopPlace:45338",,"Gymnase",,45.07889,-1.041522,,,1,,,2,,
"MOBIITI:StopPlace:44008",,"Casaubaque",,44.791523,-0.425072,,,1,,,2,,
"MOBIITI:StopPlace:45339",,"Ocean",,45.08279,-1.18662,,,1,,,2,,
"MOBIITI:StopPlace:44001",,"Berthoumieu",,44.73906,-0.270433,,,1,,,2,,
"MOBIITI:StopPlace:44485",,"Les Trois Moulins",,45.00415,-0.625368,,,1,,,2,,
"MOBIITI:StopPlace:45332",,"Les Sylvadoures",,45.078556,-1.145966,,,1,,,2,,
"MOBIITI:StopPlace:44002",,"Dom. du Bois de Chartres",,44.748158,-0.27789,,,1,,,2,,
"MOBIITI:StopPlace:45333",,"Les Bruyeres",,45.085217,-1.147967,,,1,,,2,,
"MOBIITI:StopPlace:44486","","Gare TER","",45.004154,-0.61976,,,1,,,2,,
"MOBIITI:StopPlace:44483",,"Labric",,44.99027,-0.632512,,,1,,,2,,
"MOBIITI:StopPlace:44000",,"Bourg",,44.77166,-0.312995,,,1,,,2,,
"MOBIITI:StopPlace:44484",,"Bern",,45.006462,-0.6299,,,1,,,2,,
"MOBIITI:StopPlace:44005",,"Audigey",,44.776806,-0.258467,,,1,,,2,,
"MOBIITI:StopPlace:45336",,"Cap de Ville",,45.075127,-1.073411,,,1,,,2,,
"MOBIITI:StopPlace:44489",,"Les Lauriers",,44.977226,-0.605221,,,1,,,2,,
"MOBIITI:StopPlace:44006",,"Chem. de Raullet",,44.78002,-0.257445,,,1,,,2,,
"MOBIITI:StopPlace:44003",,"Pl. du 11 Novembre",,44.734562,-0.264827,,,1,,,2,,
"MOBIITI:StopPlace:45334",,"Le Pouch",,45.073307,-1.089864,,,1,,,2,,
"MOBIITI:StopPlace:44487",,"Rue de l'Europe",,45.00375,-0.622849,,,1,,,2,,
"MOBIITI:StopPlace:44004",,"Pont Traoucat",,44.785316,-0.255116,,,1,,,2,,
"MOBIITI:StopPlace:45335",,"Maison des Arts",,45.07109,-1.143732,,,1,,,2,,
"MOBIITI:StopPlace:44481",,"Cante Merle",,44.992992,-0.619462,,,1,,,2,,
"MOBIITI:StopPlace:44482",,"La Grillade",,44.999615,-0.613863,,,1,,,2,,
"MOBIITI:StopPlace:44480",,"Labric No26",,44.993664,-0.630702,,,1,,,2,,
"MOBIITI:StopPlace:44018",,"Lestonnac",,44.822193,-0.460297,,,1,,,2,,
"MOBIITI:StopPlace:45349",,"Atlantic Club",,45.351833,-1.146151,,,1,,,2,,
"MOBIITI:StopPlace:44019",,"Bouchon de Robert",,44.80956,-0.478642,,,1,,,2,,
"MOBIITI:StopPlace:44012",,"Moulin Vergne",,44.816807,-0.473789,,,1,,,2,,
"MOBIITI:StopPlace:46675","","Château Dillon","",44.919273,-0.634756,,,1,,,0,,
"MOBIITI:StopPlace:44496",,"Paloumey",,44.980682,-0.630475,,,1,,,2,,
"MOBIITI:StopPlace:44013",,"Croix d'Ardit",,44.80547,-0.497674,,,1,,,2,,
"MOBIITI:StopPlace:45344",,"Le Port",,45.180866,-1.083223,,,1,,,2,,
"MOBIITI:StopPlace:44497",,"Eglise",,44.982056,-0.603954,,,1,,,2,,
"MOBIITI:StopPlace:44010",,"Rd Pt de Cabirac",,44.81906,-0.473081,,,1,,,2,,
"MOBIITI:StopPlace:44494",,"Malleret",,44.965946,-0.626327,,,1,,,2,,
"MOBIITI:StopPlace:45341",,"Bombannes",,45.09083,-1.147291,,,1,,,2,,
"MOBIITI:StopPlace:44011",,"Grand Arnaud",,44.80812,-0.493271,,,1,,,2,,
"MOBIITI:StopPlace:44495",,"La Lagune",,44.977867,-0.623294,,,1,,,2,,
"MOBIITI:StopPlace:45342",,"Rue des Sandres",,45.06233,-1.132046,,,1,,,2,,
"MOBIITI:StopPlace:44016",,"Mairie",,44.813274,-0.474726,,,1,,,2,,
"MOBIITI:StopPlace:45347",,"Les Ourmes",,45.182377,-1.07577,,,1,,,2,,
"MOBIITI:StopPlace:44017",,"Bel Air",,44.820316,-0.468391,,,1,,,2,,
"MOBIITI:StopPlace:45348",,"Bld Foch",,45.377197,-1.148906,,,1,,,2,,
"MOBIITI:StopPlace:45345",,"Contaut",,45.214527,-1.125578,,,1,,,2,,
"MOBIITI:StopPlace:44498",,"Lafont",,44.99018,-0.609177,,,1,,,2,,
"MOBIITI:StopPlace:44014",,"Moulin de Sonney",,44.796974,-0.478195,,,1,,,2,,
"MOBIITI:StopPlace:44499",,"Rosemont",,45.01501,-0.639343,,,1,,,2,,
"MOBIITI:StopPlace:45346",,"Plage",,45.222656,-1.166552,,,1,,,2,,
"MOBIITI:StopPlace:44015",,"Beaugey",,44.803352,-0.480474,,,1,,,2,,
"MOBIITI:StopPlace:44492",,"La Taste",,44.96824,-0.612641,,,1,,,2,,
"MOBIITI:StopPlace:45340",,"Maubuisson",,45.067608,-1.14062,,,1,,,2,,
"MOBIITI:StopPlace:44493",,"Chem. de Garennes",,44.986942,-0.605404,,,1,,,2,,
"MOBIITI:StopPlace:44490",,"La Loubeyre",,44.974827,-0.607123,,,1,,,2,,
"MOBIITI:StopPlace:44491",,"Chat. Paloumey",,44.985737,-0.631091,,,1,,,2,,
"MOBIITI:StopPlace:44023",,"Eglise",,44.781242,-0.411603,,,1,,,2,,
"MOBIITI:StopPlace:45354",,"Euronat",,45.415733,-1.129434,,,1,,,2,,
"MOBIITI:StopPlace:44024",,"La Croix Blanche",,44.78031,-0.362686,,,1,,,2,,
"MOBIITI:StopPlace:45355",,"Camp. du Gurp",,45.43352,-1.144998,,,1,,,2,,
"MOBIITI:StopPlace:45352",,"Centre Helio Marin",,45.363785,-1.145392,,,1,,,2,,
"MOBIITI:StopPlace:44022",,"Piron",,44.783623,-0.416709,,,1,,,2,,
"MOBIITI:StopPlace:45353",,"Camping Campeole",,45.3699,-1.144727,,,1,,,2,,
"MOBIITI:StopPlace:44027",,"Balaude",,44.781624,-0.38532,,,1,,,2,,
"MOBIITI:StopPlace:45358",,"Le Logis",,45.55268,-1.065557,,,1,,,2,,
"MOBIITI:StopPlace:44028",,"Les Merles",,44.783226,-0.396091,,,1,,,2,,
"MOBIITI:StopPlace:45359",,"Le Royannais",,45.54071,-1.092532,,,1,,,2,,
"MOBIITI:StopPlace:44025",,"Le Casse",,44.783283,-0.40042,,,1,,,2,,
"MOBIITI:StopPlace:45356",,"Le Blanc",,45.364323,-1.031368,,,1,,,2,,
"MOBIITI:StopPlace:44026",,"Camping",,44.783157,-0.369893,,,1,,,2,,
"MOBIITI:StopPlace:45357",,"Les Tourterelles",,45.52546,-1.107028,,,1,,,2,,
"MOBIITI:StopPlace:45350",,"Camping Municipal",,45.385868,-1.152461,,,1,,,2,,
"MOBIITI:StopPlace:44020",,"Le Moulin",,44.776203,-0.351452,,,1,,,2,,
"MOBIITI:StopPlace:45351",,"Ste Catherine",,45.31155,-0.939498,,,1,,,2,,
"MOBIITI:StopPlace:44034",,"Baragne",,44.749065,-0.45182,,,1,,,2,,
"MOBIITI:StopPlace:46696",,"L'Archevêque",,44.88102,-0.508452,,,1,,,0,,
"MOBIITI:StopPlace:44035",,"Damluc",,44.76539,-0.452113,,,1,,,2,,
"MOBIITI:StopPlace:45363",,"Vieux Soulac",,45.511017,-1.114648,,,1,,,2,,
"MOBIITI:StopPlace:44033",,"Meynac",,44.759422,-0.45258,,,1,,,2,,
"MOBIITI:StopPlace:44038",,"Bourg",,44.779514,-0.460663,,,1,,,2,,
"MOBIITI:StopPlace:45369",,"Station Service",,44.875328,-1.086301,,,1,,,2,,
"MOBIITI:StopPlace:44039",,"Le Pin Franc",,44.770763,-0.457363,,,1,,,2,,
"MOBIITI:StopPlace:44036",,"Argenton",,44.75474,-0.435575,,,1,,,2,,
"MOBIITI:StopPlace:45367",,"Lot. Prairie Lescarran",,44.878498,-1.084756,,,1,,,2,,
"MOBIITI:StopPlace:44037",,"La Marqueuse",,44.759457,-0.433209,,,1,,,2,,
"MOBIITI:StopPlace:45368",,"Av. du Medoc",,44.876766,-1.08373,,,1,,,2,,
"MOBIITI:StopPlace:44030",,"Le Marais",,44.81156,-0.506487,,,1,,,2,,
"MOBIITI:StopPlace:45361",,"La Croix",,45.396454,-1.037209,,,1,,,2,,
"MOBIITI:StopPlace:45362",,"Cimetiere",,45.51446,-1.113791,,,1,,,2,,
"MOBIITI:StopPlace:46692",,"Collège Lapierre",,44.87394,-0.524359,,,1,,,0,,
"MOBIITI:StopPlace:44031",,"Coll. N. Mandela",,44.83888,-0.533413,,,1,,,2,,
"MOBIITI:StopPlace:45360",,"Aérodrome",,45.496902,-1.076638,,,1,,,2,,
"MOBIITI:StopPlace:44045",,"La Cite",,44.800076,-0.359259,,,1,,,2,,
"MOBIITI:StopPlace:45376",,"Av. Cote d'Argent 39",,44.884212,-1.086238,,,1,,,2,,
"MOBIITI:StopPlace:44046",,"Rivalan",,44.807266,-0.360555,,,1,,,2,,
"MOBIITI:StopPlace:45377",,"Av. Cote d'Argent 48",,44.888004,-1.088447,,,1,,,2,,
"MOBIITI:StopPlace:44043",,"Patagrou",,44.747963,-0.42314,,,1,,,2,,
"MOBIITI:StopPlace:45374",,"Rte de la Jenny",,44.839542,-1.123113,,,1,,,2,,
"MOBIITI:StopPlace:44044",,"Tambourins",,44.754925,-0.448839,,,1,,,2,,
"MOBIITI:StopPlace:46221",,"Léonard de Vinci",,44.782696,-0.652457,,,1,,,0,,
"MOBIITI:StopPlace:45375",,"College",,44.79301,-1.145908,,,1,,,2,,
"MOBIITI:StopPlace:44049",,"Bourg",,44.79989,-0.249008,,,1,,,2,,
"MOBIITI:StopPlace:46228",,"Eiffel",,44.78623,-0.639058,,,1,,,0,,
"MOBIITI:StopPlace:44047",,"Le Canton",,44.795105,-0.360442,,,1,,,2,,
"MOBIITI:StopPlace:45378",,"Lyc. Nord Bassin 2",,44.752346,-1.078249,,,1,,,2,,
"MOBIITI:StopPlace:44048",,"Richard",,44.790226,-0.359509,,,1,,,2,,
"MOBIITI:StopPlace:45379",,"Coll. A. Lahaye",,44.746014,-1.087362,,,1,,,2,,
"MOBIITI:StopPlace:44041",,"Mairie",,44.75023,-0.435421,,,1,,,2,,
"MOBIITI:StopPlace:45372",,"La Poste",,44.872604,-1.092199,,,1,,,2,,
"MOBIITI:StopPlace:44042",,"La Pastorale",,44.750504,-0.444129,,,1,,,2,,
"MOBIITI:StopPlace:45373",,"Hotel du Porge",,44.868313,-1.089809,,,1,,,2,,
"MOBIITI:StopPlace:45370",,"Lescarran",,44.879852,-1.082562,,,1,,,2,,
"MOBIITI:StopPlace:44040",,"Stade",,44.748226,-0.431684,,,1,,,2,,
"MOBIITI:StopPlace:45371",,"La Plaine de Lescarran",,44.87901,-1.084868,,,1,,,2,,
"MOBIITI:StopPlace:45387","","Ste Croix","Tram C/D",44.831852,-0.559427,,,1,,,2,,
"MOBIITI:StopPlace:44056",,"Eglise",,44.7355,-0.37133,,,1,,,2,,
"MOBIITI:StopPlace:45388",,"Centre Commercial",,44.827324,-0.445751,,,1,,,2,,
"MOBIITI:StopPlace:44057",,"Rte du Chateau",,44.79312,-0.334401,,,1,,,2,,
"MOBIITI:StopPlace:44054",,"Les Faures",,44.72733,-0.363172,,,1,,,2,,
"MOBIITI:StopPlace:44055",,"Courcouyac",,44.720203,-0.382229,,,1,,,2,,
"MOBIITI:StopPlace:44058",,"Moreau",,44.804096,-0.329967,,,1,,,2,,
"MOBIITI:StopPlace:46237",,"Europarc",,44.781044,-0.655496,,,1,,,0,,
"MOBIITI:StopPlace:44059",,"Les Ecoles",,44.73525,-0.359488,,,1,,,2,,
"MOBIITI:StopPlace:45380",,"Chat. d'Eau",,44.920612,-0.98877,,,1,,,2,,
"MOBIITI:StopPlace:44052",,"Cite Pt Bois",,44.848,-0.329732,,,1,,,2,,
"MOBIITI:StopPlace:44053",,"Foyer Communal",,44.856396,-0.322998,,,1,,,2,,
"MOBIITI:StopPlace:45384",,"Aire de Covoiturage",,44.83155,-0.400121,,,1,,,2,,
"MOBIITI:StopPlace:44050",,"Bourg",,44.725304,-0.438591,,,1,,,2,,
"MOBIITI:StopPlace:45381",,"Salle l'Escoure Ocean",,45.001774,-1.195611,,,1,,,2,,
"MOBIITI:StopPlace:44051",,"Stade",,44.71243,-0.396703,,,1,,,2,,
"MOBIITI:StopPlace:45382",,"Carreyre",,44.992123,-1.145978,,,1,,,2,,
"MOBIITI:StopPlace:44067",,"Le Moulard",,44.83656,-0.319637,,,1,,,2,,
"MOBIITI:StopPlace:44068",,"Le Pin",,44.8342,-0.316755,,,1,,,2,,
"MOBIITI:StopPlace:45399",,"Chem. Vieux Plantie",,45.00961,-0.404661,,,1,,,2,,
"MOBIITI:StopPlace:44065",,"Grand Bois",,44.825436,-0.353543,,,1,,,2,,
"MOBIITI:StopPlace:45397","","Rolle","",45.0409,-0.357268,,,1,,,2,,
"MOBIITI:StopPlace:44066",,"Beaupied",,44.846188,-0.332277,,,1,,,2,,
"MOBIITI:StopPlace:44069",,"Luchey Haut",,44.82549,-0.3206,,,1,,,2,,
"MOBIITI:StopPlace:45390",,"Les Grands Pins",,44.692593,-0.501756,,,1,,,2,,
"MOBIITI:StopPlace:44060",,"Ecole",,44.802513,-0.339522,,,1,,,2,,
"MOBIITI:StopPlace:45391",,"Carpo",,44.71788,-0.523301,,,1,,,2,,
"MOBIITI:StopPlace:44063",,"Bellevue",,44.77267,-0.492765,,,1,,,2,,
"MOBIITI:StopPlace:45394",,"Beaucourt",,45.02072,-0.39113,,,1,,,2,,
"MOBIITI:StopPlace:44064",,"La Ferme",,44.816727,-0.361899,,,1,,,2,,
"MOBIITI:StopPlace:45392",,"Ecole Primaire",,45.14044,-0.411041,,,1,,,2,,
"MOBIITI:StopPlace:44061",,"Barlan",,44.794632,-0.336849,,,1,,,2,,
"MOBIITI:StopPlace:45393",,"Pont de Cottet",,45.11213,-0.379827,,,1,,,2,,
"MOBIITI:StopPlace:44062",,"Le Breuil",,44.773975,-0.277655,,,1,,,2,,
"MOBIITI:StopPlace:45288",,"Rue de Cauderan",,44.846523,-0.597547,,,1,,,2,,
"MOBIITI:StopPlace:46136","","Collège de Blanquefort","",44.90673,-0.628434,,,1,,,0,,
"MOBIITI:StopPlace:46135","","Lycée Jean Monnet","",44.915993,-0.634654,,,1,,,2,,
"MOBIITI:StopPlace:45280",,"Le Fourcas",,45.086376,-0.796482,,,1,,,2,,
"MOBIITI:StopPlace:45281",,"Rte d'Arsac",,44.970528,-0.72372,,,1,,,2,,
"MOBIITI:StopPlace:46131","","Ecole d'Architecture","",44.79265,-0.605321,,,1,,,0,,
"MOBIITI:StopPlace:45282",,"Le Linas",,44.985455,-0.743268,,,1,,,2,,
"MOBIITI:StopPlace:45283",,"Bourg",,45.202015,-0.834954,,,1,,,2,,
"MOBIITI:StopPlace:46142","","Frankton","",44.907272,-0.621822,,,1,,,0,,
"MOBIITI:StopPlace:46158","","Jean Moulin","",44.91241,-0.636292,,,1,,,0,,
"MOBIITI:StopPlace:46153","","Mairie de Blanquefort","",44.908627,-0.630328,,,1,,,0,,
"MOBIITI:StopPlace:46168","","Général De Gaulle","",44.908974,-0.638669,,,1,,,0,,
"MOBIITI:StopPlace:46167",,"République",,44.908844,-0.631404,,,1,,,0,,
"MOBIITI:StopPlace:46161","","Lycée Agricole","",44.917793,-0.633664,,,1,,,0,,
"MOBIITI:StopPlace:46165","","Gare de Blanquefort","",44.917885,-0.624062,,,1,,,2,,
"MOBIITI:StopPlace:43900",,"Graveyron",,44.841152,-0.386528,,,1,,,2,,
"MOBIITI:StopPlace:43903",,"Bon Ange",,44.862415,-0.418181,,,1,,,2,,
"MOBIITI:StopPlace:43904",,"Rivasseau 2",,44.86165,-0.452772,,,1,,,2,,
"MOBIITI:StopPlace:43901",,"Bourg",,44.8423,-0.397902,,,1,,,2,,
"MOBIITI:StopPlace:43902",,"Av. des Trois Lieues",,44.84738,-0.47118,,,1,,,2,,
"MOBIITI:StopPlace:43910",,"Peychon",,44.841015,-0.483525,,,1,,,2,,
"MOBIITI:StopPlace:43911",,"Av. Bons Enfants",,44.82996,-0.448793,,,1,,,2,,
"MOBIITI:StopPlace:43914",,"Melac",,44.83874,-0.489482,,,1,,,2,,
"MOBIITI:StopPlace:43915",,"Hameau de Fabre",,44.850746,-0.454581,,,1,,,2,,
"MOBIITI:StopPlace:43912",,"Clos de Queyron",,44.845734,-0.472592,,,1,,,2,,
"MOBIITI:StopPlace:43913",,"Le Parc",,44.84399,-0.477613,,,1,,,2,,
"MOBIITI:StopPlace:43907",,"Petrus",,44.83944,-0.44785,,,1,,,2,,
"MOBIITI:StopPlace:43908",,"Mairie",,44.847763,-0.463922,,,1,,,2,,
"MOBIITI:StopPlace:43905",,"Bourg",,44.849304,-0.462677,,,1,,,2,,
"MOBIITI:StopPlace:43906",,"Av. Desclaud",,44.83981,-0.46974,,,1,,,2,,
"MOBIITI:StopPlace:43909",,"Lisennes",,44.841145,-0.454841,,,1,,,2,,
"MOBIITI:StopPlace:43920",,"Bourg",,44.850555,-0.439149,,,1,,,2,,
"MOBIITI:StopPlace:43925",,"Gachet",,44.868156,-0.443972,,,1,,,2,,
"MOBIITI:StopPlace:43926",,"Parc de Cadouin",,44.85064,-0.447691,,,1,,,2,,
"MOBIITI:StopPlace:43923",,"Le Vigneau",,44.84549,-0.417886,,,1,,,2,,
"MOBIITI:StopPlace:43924",,"Les Pres de l'Eglise",,44.850967,-0.434748,,,1,,,2,,
"MOBIITI:StopPlace:47041",,"Domaine de Hontane",,44.92144,-0.67365,,,1,,,0,,
"MOBIITI:StopPlace:47040",,"Foin",,44.9281,-0.678796,,,1,,,2,,
"MOBIITI:StopPlace:43918",,"Le Canon",,44.84078,-0.494781,,,1,,,2,,
"MOBIITI:StopPlace:43919",,"Le Verger",,44.85099,-0.457013,,,1,,,2,,
"MOBIITI:StopPlace:43916",,"La Melacaise",,44.839546,-0.489396,,,1,,,2,,
"MOBIITI:StopPlace:43917",,"Les Peupliers",,44.84636,-0.471564,,,1,,,2,,
"MOBIITI:StopPlace:43932",,"Eglise",,44.851387,-0.437728,,,1,,,2,,
"MOBIITI:StopPlace:43933",,"La Barrere",,44.857567,-0.425898,,,1,,,2,,
"MOBIITI:StopPlace:43930",,"Bel Horizon",,44.857395,-0.4421,,,1,,,2,,
"MOBIITI:StopPlace:43931",,"Cadouin",,44.852737,-0.451953,,,1,,,2,,
"MOBIITI:StopPlace:47050","","Résidence Le Château","",44.779797,-0.573129,,,1,,,0,,
"MOBIITI:StopPlace:43929",,"Hameau de la Laurence",,44.84937,-0.429375,,,1,,,2,,
"MOBIITI:StopPlace:43927",,"Pont Castaing",,44.849796,-0.429763,,,1,,,2,,
"MOBIITI:StopPlace:43928",,"Touty",,44.857227,-0.438011,,,1,,,2,,
"MOBIITI:StopPlace:43943",,"Lot. Beausejour 2",,44.82792,-0.43354,,,1,,,2,,
"MOBIITI:StopPlace:43944",,"Lot. Beausejour 1",,44.830135,-0.433132,,,1,,,2,,
"MOBIITI:StopPlace:43941",,"Le Petit Cos",,44.831074,-0.397454,,,1,,,2,,
"MOBIITI:StopPlace:43942",,"Patenne",,44.83999,-0.400649,,,1,,,2,,
"MOBIITI:StopPlace:43947",,"La Relle",,44.82445,-0.440627,,,1,,,2,,
"MOBIITI:StopPlace:43948",,"Clos Poujeau",,44.82008,-0.444727,,,1,,,2,,
"MOBIITI:StopPlace:43945",,"Mairie",,44.8241,-0.44681,,,1,,,2,,
"MOBIITI:StopPlace:43946",,"Maison Rouge",,44.825336,-0.430905,,,1,,,2,,
"MOBIITI:StopPlace:43940",,"Av. de la Source",,44.831326,-0.395691,,,1,,,2,,
"MOBIITI:StopPlace:43938",,"La Planteyre",,44.83222,-0.406414,,,1,,,2,,
"MOBIITI:StopPlace:43939",,"Av. Entre deux Mers",,44.832977,-0.407206,,,1,,,2,,
"MOBIITI:StopPlace:43954",,"Mairie",,44.833,-0.363375,,,1,,,2,,
"MOBIITI:StopPlace:44801",,"Bourg",,45.472427,-1.056814,,,1,,,2,,
"MOBIITI:StopPlace:43955",,"Fausse Negre",,44.831303,-0.387657,,,1,,,2,,
"MOBIITI:StopPlace:44802",,"La Tamponnette",,45.05505,-0.779278,,,1,,,2,,
"MOBIITI:StopPlace:43952",,"Bariac",,44.825405,-0.313207,,,1,,,2,,
"MOBIITI:StopPlace:43953",,"L'Oustalot",,44.827576,-0.322069,,,1,,,2,,
"MOBIITI:StopPlace:44800",,"Les Moulins",,45.453674,-1.043669,,,1,,,2,,
"MOBIITI:StopPlace:43958",,"La Belle Etoile",,44.83202,-0.472271,,,1,,,2,,
"MOBIITI:StopPlace:44805",,"Les Lamberts",,45.02882,-0.830646,,,1,,,2,,
"MOBIITI:StopPlace:43959",,"Lorient",,44.794117,-0.383984,,,1,,,2,,
"MOBIITI:StopPlace:44806",,"Bouqueyran",,45.048775,-0.797758,,,1,,,2,,
"MOBIITI:StopPlace:43956",,"Les Sept Freres",,44.830547,-0.382055,,,1,,,2,,
"MOBIITI:StopPlace:44803",,"Grand Poujeaux",,45.077408,-0.744085,,,1,,,2,,
"MOBIITI:StopPlace:43957",,"Mairie",,44.80584,-0.393282,,,1,,,2,,
"MOBIITI:StopPlace:44804",,"Guitignan",,45.068462,-0.757194,,,1,,,2,,
"MOBIITI:StopPlace:43950",,"La Chausse",,44.82826,-0.462213,,,1,,,2,,
"MOBIITI:StopPlace:43951",,"Le Poteau",,44.834785,-0.339133,,,1,,,2,,
"MOBIITI:StopPlace:43949",,"Les Bons Enfants",,44.825386,-0.451458,,,1,,,2,,
"MOBIITI:StopPlace:44812",,"La Cardine",,45.21697,-0.87102,,,1,,,2,,
"MOBIITI:StopPlace:43965",,"Chem. du Lavoir",,44.82254,-0.428001,,,1,,,2,,
"MOBIITI:StopPlace:43966",,"Le Rouzic",,44.842274,-0.54983,,,1,,,0,,
"MOBIITI:StopPlace:44813",,"Bourg",,45.22726,-0.831508,,,1,,,2,,
"MOBIITI:StopPlace:44810",,"Medrac",,45.081978,-0.752358,,,1,,,2,,
"MOBIITI:StopPlace:43963",,"Ecole",,44.820427,-0.438063,,,1,,,2,,
"MOBIITI:StopPlace:44811",,"Le Puy",,45.226635,-0.810341,,,1,,,2,,
"MOBIITI:StopPlace:43964",,"Lot. le Bocage",,44.822247,-0.432423,,,1,,,2,,
"MOBIITI:StopPlace:43969",,"Roux",,44.829193,-0.414731,,,1,,,2,,
"MOBIITI:StopPlace:44816",,"Le Linas",,45.229336,-0.857035,,,1,,,2,,
"MOBIITI:StopPlace:44817",,"Le Luc",,45.230587,-0.821314,,,1,,,2,,
"MOBIITI:StopPlace:44814",,"La Mouline",,45.218384,-0.849044,,,1,,,2,,
"MOBIITI:StopPlace:43968",,"Langlois",,44.812225,-0.39172,,,1,,,2,,
"MOBIITI:StopPlace:44815",,"Cimetiere",,45.232502,-0.832864,,,1,,,2,,
"MOBIITI:StopPlace:43962",,"La Fraise",,44.81546,-0.447891,,,1,,,2,,
"MOBIITI:StopPlace:43960",,"Pineau",,44.80116,-0.391773,,,1,,,2,,
"MOBIITI:StopPlace:44809",,"Chaux",,45.050606,-0.780137,,,1,,,2,,
"MOBIITI:StopPlace:44807",,"Stade",,45.05769,-0.772492,,,1,,,2,,
"MOBIITI:StopPlace:44808",,"Eglise",,45.059357,-0.771361,,,1,,,2,,
"MOBIITI:StopPlace:43976",,"Bourg",,44.768616,-0.272408,,,1,,,2,,
"MOBIITI:StopPlace:44823",,"La Prairie",,45.148,-0.824115,,,1,,,2,,
"MOBIITI:StopPlace:43977",,"Chanterot",,44.75519,-0.286665,,,1,,,2,,
